[
  {
    "name": "Умурбек Азизбек Сурхон",
    "address": "Порт",
    "lat": 37.20009766984731,
    "lng": 67.27981318719685
  },
  {
    "name": "\"TERMIZ DARYO PORTI\" MChJ 2",
    "address": "Порт",
    "lat": 37.200275,
    "lng": 67.3018166
  },
  {
    "name": "\"HADID ARIA\" MChJ (Freez)",
    "address": "Порт",
    "lat": 37.2006978,
    "lng": 67.30219529
  },
  {
    "name": "Амирхановна О/К",
    "address": "Порт",
    "lat": 37.20103765837848,
    "lng": 67.3003289848566
  },
  {
    "name": "\"PATTAKESAR YANGI SHAHAR\" OK",
    "address": "Порт",
    "lat": 37.20126120373607,
    "lng": 67.2735249157995
  },
  {
    "name": "DADABAYEVA BARNO NISHANOVNA",
    "address": "Порт",
    "lat": 37.2018355736509,
    "lng": 67.29840827174485
  },
  {
    "name": "\"TERMIZ DARYO PORTI\" MChJ",
    "address": "Порт",
    "lat": 37.20233349,
    "lng": 67.30277609
  },
  {
    "name": "Шаропова Юлдуз",
    "address": "Порт",
    "lat": 37.203377089463174,
    "lng": 67.30210150592029
  },
  {
    "name": "Равшан ака порт",
    "address": "Порт",
    "lat": 37.203461662866175,
    "lng": 67.29656148701906
  },
  {
    "name": "CHARIYEVA BURIXOL AMIROVNA",
    "address": "Порт",
    "lat": 37.20398762732497,
    "lng": 67.29669685481795
  },
  {
    "name": "Хусниддин Хамкор СИЧК",
    "address": "Термез Тумани",
    "lat": 37.20446999,
    "lng": 67.29459034
  },
  {
    "name": "QULIYEVA MORAL PANJI QIZI",
    "address": "Термиз Шахар",
    "lat": 37.204941739328206,
    "lng": 67.29357694275677
  },
  {
    "name": "ЯТТ Авезова Хамида",
    "address": "Термез Тумани",
    "lat": 37.2050585411489,
    "lng": 67.29325348511338
  },
  {
    "name": "Хамид Ахмат шох",
    "address": "Термез Тумани",
    "lat": 37.20587171148509,
    "lng": 67.29315533302724
  },
  {
    "name": "Мусаева мухаббат",
    "address": "порт",
    "lat": 37.2061016689986,
    "lng": 67.2921905759722
  },
  {
    "name": "ЯТТ Бозорова Собира",
    "address": "Термез Тумани",
    "lat": 37.2062581,
    "lng": 67.2927621
  },
  {
    "name": "KULTOYEV PANJI VOXIDOVICH",
    "address": "город Термез Surxondaryo viloyati, Termiz shahar, - NURLI KELAJAK,",
    "lat": 37.20631272532046,
    "lng": 67.29139412753284
  },
  {
    "name": "ешкобилова озода",
    "address": "порт",
    "lat": 37.207157,
    "lng": 67.2831667
  },
  {
    "name": "Шухрат Финансиал Гроуп МЧЖ",
    "address": "Термез Тумани",
    "lat": 37.2072328,
    "lng": 67.3009554
  },
  {
    "name": "XALILOV BEXRUZ JASUR O‘G‘LI",
    "address": "Термез Тумани",
    "lat": 37.20731339883059,
    "lng": 67.30102585628629
  },
  {
    "name": "ЯТТ  усмонова севара",
    "address": "Термез Тумани",
    "lat": 37.207350907847285,
    "lng": 67.29053280316293
  },
  {
    "name": "RUZIYEVA BOGDAGUL IRGASHOVNA",
    "address": "Термиз Шахар",
    "lat": 37.2079233,
    "lng": 67.3011328
  },
  {
    "name": "HASANOVA MEHRI ASOMIDDINOVNA",
    "address": "Термиз шахар Ибн сино кучаси",
    "lat": 37.20830292440951,
    "lng": 67.29566554538906
  },
  {
    "name": "\"ANVAR SAGATAYEV\" MCHJ",
    "address": "Термиз Шахар",
    "lat": 37.20832224469632,
    "lng": 67.28914031758904
  },
  {
    "name": "BABAYEVA GULJAMOL XAMRAYEVNA",
    "address": "город Термез ТЕРМИЗ Ш., ПАТТАКЕСАР МФЙ, МУКУМИЙ,  uy:21",
    "lat": 37.20842291135341,
    "lng": 67.2891338635236
  },
  {
    "name": "ЯТТ Чоршанбиев Камолиддин",
    "address": "Термез Тумани",
    "lat": 37.20856326632202,
    "lng": 67.28058063425124
  },
  {
    "name": "ЯТТ шарипова назира",
    "address": "Термез Тумани",
    "lat": 37.208652407862246,
    "lng": 67.2828258946538
  },
  {
    "name": "HAMROYEVA SHAXZODA BONU MUXIDDIN QIZI",
    "address": "термез шахар",
    "lat": 37.20868329517543,
    "lng": 67.27973909117281
  },
  {
    "name": "\"ULUG'BEK-OYBEK-TERMIZ\" OK",
    "address": "Термиз Шахар",
    "lat": 37.20885592047125,
    "lng": 67.28203975595534
  },
  {
    "name": "XAYNAZAROVA DJUMAGUL TURALIYEVNA",
    "address": "город Термез ТЕРМИЗ Ш., ЖЎЙЖАНГАЛ МФЙ, НУРАФШОН 5-БУРИЛИШ,  uy:1А",
    "lat": 37.20990168862045,
    "lng": 67.30017106980085
  },
  {
    "name": "\"ZO‘R KAYFIYAT MARKET\" MCHJ",
    "address": "паттакесар маххаласи",
    "lat": 37.21011769026518,
    "lng": 67.30002447031438
  },
  {
    "name": "Баратова Нодира ятт",
    "address": "тараккиёт кучаси",
    "lat": 37.21014916431159,
    "lng": 67.27664734236896
  },
  {
    "name": "ЯТТ Келдиева Машхура",
    "address": "Термез шахар",
    "lat": 37.21087679732591,
    "lng": 67.27486032061279
  },
  {
    "name": "RO‘ZIQULOVA OZODAXON XOLMURODOVNA",
    "address": "город Термез",
    "lat": 37.21093190833926,
    "lng": 67.27164602838457
  },
  {
    "name": "ЯТТ Хамидов Равшан",
    "address": "Термез шахар",
    "lat": 37.2110601,
    "lng": 67.2754487
  },
  {
    "name": "YULIYEV G‘ANISHER JO‘RAYEVICH",
    "address": "город Термез ТЕРМИЗ Ш., ШИФОКОР МФЙ, ШИФОКОР МФЙ, КАМОЛИДДИН БЕХЗОД,  uy:116 xonadon:5",
    "lat": 37.21131923608482,
    "lng": 67.27558795362711
  },
  {
    "name": "ЯТТ Имомова Феруза",
    "address": "Термез Тумани",
    "lat": 37.21134484279901,
    "lng": 67.30063970200717
  },
  {
    "name": "ЯТТ Каримов Ботирхужа",
    "address": "Термез шахар",
    "lat": 37.211374305188656,
    "lng": 67.27265420369804
  },
  {
    "name": "ABILOVA DILOROM AMINOVNA",
    "address": "термез шахар",
    "lat": 37.21137962769717,
    "lng": 67.27553062140942
  },
  {
    "name": "Каттаева Гулсара",
    "address": "Нареманиский Ч,Сафаров",
    "lat": 37.21142153721303,
    "lng": 67.26924176327884
  },
  {
    "name": "Аср файз Термиз х/к",
    "address": "Термез шахар",
    "lat": 37.211431679315865,
    "lng": 67.27270876988769
  },
  {
    "name": "''USON SANOB'' MCHJ (Термез)",
    "address": "Термиз шахар",
    "lat": 37.21148343756795,
    "lng": 67.27562852203846
  },
  {
    "name": "BAXRIDDINOVA GO‘ZAL BAXRIDDIN QIZI",
    "address": "город Термез ТЕРМИЗ Ш., ГУЛИСТОН МФЙ, ҚИРҒОҚ КЎЧАСИ,  uy:2-БУР 50",
    "lat": 37.21149454358965,
    "lng": 67.27499543689191
  },
  {
    "name": "ЯТТ Уринов Эркин",
    "address": "Термез шахар",
    "lat": 37.21150020137429,
    "lng": 67.27574486285448
  },
  {
    "name": "GUDALOVA ULDON NORMAXMATOVNA",
    "address": "Термиз шахар",
    "lat": 37.2115042,
    "lng": 67.2683604
  },
  {
    "name": "Термиз Азларсой барака мчж",
    "address": "Термез шахар",
    "lat": 37.21167705953121,
    "lng": 67.27571225725114
  },
  {
    "name": "AMINOV KAMOL DOROBOVICH",
    "address": "Байсунский район -, -",
    "lat": 37.211748557165265,
    "lng": 67.27557387202978
  },
  {
    "name": "TEMIROVA GULCHEHRA KATTAYEVNA",
    "address": "Город Термез",
    "lat": 37.21177521161735,
    "lng": 67.26624456234276
  },
  {
    "name": "ЯТТ Расулова Хабибa",
    "address": "Термез шахар",
    "lat": 37.2117978008464,
    "lng": 67.27536315098405
  },
  {
    "name": "NORMENGLIYEVA ZAMIRA ERKIN QIZI",
    "address": "Термезский район УЗБЕКИСТАН СУРХАНДАРЬИНСКИЙ ВИЛОЯТ ТЕРМИЗСКИЙ ТУМАН ХОТИНРАБОТ КИШЛОК ФУКАРОЛАР ЙИГИНИ ГУЛБАХОР МАХАЛЛА ФУКАРОЛАР ЙИГИНИ, 0",
    "lat": 37.211838494986296,
    "lng": 67.29159311391413
  },
  {
    "name": "UMARXONOV OYBEK MASUMXONOVICH",
    "address": "Термезский район ПАХТАОБОД ҚФЙ, ШАРҚ МФЙ,  uy:00, 0",
    "lat": 37.21186707727611,
    "lng": 67.26555121131241
  },
  {
    "name": "Hayitaliyeva Nargiza",
    "address": "Рохат Ошхонаси йони",
    "lat": 37.21202612388879,
    "lng": 67.29176326654851
  },
  {
    "name": "ZARIYEV JAXONGIR URALOVICH",
    "address": "город Термез ТЕРМИЗ Ш., БОҒИШАМОЛ МФЙ, ФАРОВОН МАССИВИ,  uy:19 xonadon:34",
    "lat": 37.212032871320844,
    "lng": 67.27535242214799
  },
  {
    "name": "Аширгул Савдо Барака(Exclusive)",
    "address": "Термез шахар",
    "lat": 37.2120633,
    "lng": 67.2741927
  },
  {
    "name": "ЯТТ Хамидов Гайрат",
    "address": "Термез шахар",
    "lat": 37.2120964480564,
    "lng": 67.27528989315033
  },
  {
    "name": "Таликулов Парда",
    "address": "Термез шахар",
    "lat": 37.21224954351783,
    "lng": 67.27325895801187
  },
  {
    "name": "Сентр Асил Бургер",
    "address": "Термез шахар",
    "lat": 37.21256166666667,
    "lng": 67.27507833333334
  },
  {
    "name": "Дилноза Мадина Термез ХК",
    "address": "Термез шахар",
    "lat": 37.2128338040784,
    "lng": 67.27574645541608
  },
  {
    "name": "TANIKULOV ABBOS ASHUROVICH",
    "address": "термиз шахар Ислом каримов кочаси",
    "lat": 37.2141237789765,
    "lng": 67.2740394808352
  },
  {
    "name": "QARABOYEVA ZILOLA CHORI QIZI",
    "address": "Истикбол кучаси 5 уй",
    "lat": 37.21420948393643,
    "lng": 67.27099626325071
  },
  {
    "name": "NURMATOV NODIR JOVLIYEVICH",
    "address": "город Термез Сурхандарьинская область, Термез г., Истиклол, дом 7, кв. 19",
    "lat": 37.214217823930085,
    "lng": 67.27026435546577
  },
  {
    "name": "Спед Старт",
    "address": "Термез шахар",
    "lat": 37.214308055117726,
    "lng": 67.27026427164674
  },
  {
    "name": "ятт Хусанова майрам",
    "address": "Термез Тумани",
    "lat": 37.214624555781484,
    "lng": 67.29714411310852
  },
  {
    "name": "SUN AGRO MILK Х К",
    "address": "термез шахар",
    "lat": 37.214973284862936,
    "lng": 67.26802026852965
  },
  {
    "name": "\"ABDULAZIZ OSHLARI\" OK",
    "address": "Маърифат МФЙ, Чўлпон кучаси, 8-уй  ",
    "lat": 37.2155248,
    "lng": 67.2799795
  },
  {
    "name": "ятт Турдикулов Фарход",
    "address": "ески шахар",
    "lat": 37.21558746881783,
    "lng": 67.26974207907915
  },
  {
    "name": "ал алим х.к",
    "address": "Термез шахар",
    "lat": 37.2156189,
    "lng": 67.2679704
  },
  {
    "name": "ЧП \"ATLANTIS OYL TERMEZ\"",
    "address": "Таджикский",
    "lat": 37.2156907,
    "lng": 67.2626961
  },
  {
    "name": "Сурхон барака фарм мчж",
    "address": "Термез шахар",
    "lat": 37.21569351666667,
    "lng": 67.26653176666667
  },
  {
    "name": "Ятт Шоюсупов Фаррух",
    "address": "Термез шахар",
    "lat": 37.21572618931532,
    "lng": 67.2677624411881
  },
  {
    "name": "Бойматов Ислом ятт",
    "address": "Термез шахар",
    "lat": 37.215797142125666,
    "lng": 67.26736958138645
  },
  {
    "name": "NASRIDDINOVA ZAYNURA ISMATOVNA",
    "address": "Termiz shahar Temir Mirzayev mahalla",
    "lat": 37.21582664642483,
    "lng": 67.27790454402566
  },
  {
    "name": "NURMATOV NODIR JOVLIYEVICH 2",
    "address": "город Термез Сурхандарьинская область, Термез г., Истиклол, дом 7, кв. 19",
    "lat": 37.215828333333334,
    "lng": 67.26941333333333
  },
  {
    "name": "Шамисшох о.к",
    "address": "Термез шахар",
    "lat": 37.215885990299284,
    "lng": 67.26553604006767
  },
  {
    "name": "Курбонназарова Гулчехра",
    "address": "Термез шахар",
    "lat": 37.215897808782756,
    "lng": 67.26532976143062
  },
  {
    "name": "ТЕРМИЗ УМИД ХАСАН ХУСАН Х/К",
    "address": "Термез шахар",
    "lat": 37.21617503,
    "lng": 67.27850444
  },
  {
    "name": "Зоирова Мафтуна",
    "address": "Термез шахар",
    "lat": 37.21619327086955,
    "lng": 67.27293482981622
  },
  {
    "name": "URUNOV ABDUVALI CHARIYEVICH",
    "address": "Термиз Шахар",
    "lat": 37.21622030250728,
    "lng": 67.29655905626714
  },
  {
    "name": "UMID OMAD GOLD MCHJ",
    "address": "Термиз Шахар",
    "lat": 37.21643302,
    "lng": 67.27623071
  },
  {
    "name": "ESHKULOVA MAYRAM YUSUPOVNA",
    "address": "гулбахор",
    "lat": 37.21653,
    "lng": 67.78743666666666
  },
  {
    "name": "XOLOVA MOXIRA MAMARAJABOVNA",
    "address": "Термез шахар",
    "lat": 37.216531564481556,
    "lng": 67.27881792001426
  },
  {
    "name": "\"CHEGARA PAYNET\" MCHJ",
    "address": "Гулбахор МФЙ, Кунчиқар кучаси, 21А-уй, 1-хонадон  ",
    "lat": 37.2165697,
    "lng": 67.7874479
  },
  {
    "name": "ЯТТ Курбонова Насиба",
    "address": "Термез шахар",
    "lat": 37.21664036158472,
    "lng": 67.27906216867268
  },
  {
    "name": "RAHMATQULOVA RAYHON AVAZOVNA",
    "address": "Marifat Mfy",
    "lat": 37.216661190614104,
    "lng": 67.27916928939521
  },
  {
    "name": "Термиз Саидназар Барака х/к",
    "address": "Термез шахар",
    "lat": 37.21668093,
    "lng": 67.27018514
  },
  {
    "name": "Зарнигор-Гулмира-Шахина х/к",
    "address": "ISTIQLOL (SH.RASHIDOV) KO'CHASI 33\"",
    "lat": 37.21681,
    "lng": 67.269415
  },
  {
    "name": "KASIMOV AKBARJON ABDURAZAKOVICH",
    "address": "termiz shaxar",
    "lat": 37.2168583329767,
    "lng": 67.27433896623552
  },
  {
    "name": "ЯТТ Фармонов Уткир",
    "address": "Термез шахар",
    "lat": 37.21692123916,
    "lng": 67.27450710721314
  },
  {
    "name": "XUDOYBERDIYEV ORTIQ OMANGELDIYEVICH",
    "address": "город Термез ТЕРМИЗ Ш., МАЪРИФАТ МФЙ, АЙРИТОМ,  uy:7",
    "lat": 37.21747398376465,
    "lng": 67.2759375628084
  },
  {
    "name": "BADALOVA NILUFAR MAVLONOVNA",
    "address": "город Термез ТЕРМИЗ Ш., МАЪРИФАТ МФЙ, КУКОН,  uy:4/1",
    "lat": 37.21777204424143,
    "lng": 67.27674457244575
  },
  {
    "name": "Kamronbek Behruzbek Baraka Fayz х/к",
    "address": "тараккиёт кучаси",
    "lat": 37.2180611,
    "lng": 67.2762283
  },
  {
    "name": "NORBOYEVA MANZURA MAXMUDOVNA",
    "address": "Termiz shahar Temir Mirzayev mahalla",
    "lat": 37.21823962870985,
    "lng": 67.28213170543313
  },
  {
    "name": "СП \"DURBEK MDM\"",
    "address": "тараккиёт кучаси",
    "lat": 37.218448,
    "lng": 67.27609362
  },
  {
    "name": "\"BAXODIR AZIZA SHIRINA\" MCHJ",
    "address": "Bogʻzor MFY, Marjon ko'chasi, 1 \"с\"-uy  ",
    "lat": 37.218693333333334,
    "lng": 67.27645666666668
  },
  {
    "name": "ABDUNIYOZOVA LOBAR AKBAR QIZI",
    "address": "75",
    "lat": 37.21894608,
    "lng": 67.27941378
  },
  {
    "name": "BURIYEV MURAD PANJIYEVICH",
    "address": "Juyjangal Mfy",
    "lat": 37.219041106291115,
    "lng": 67.2941539529711
  },
  {
    "name": "\"PULXOKIM AFROSIYOB\" MCHJ",
    "address": "Termiz shahar Navruz mfy",
    "lat": 37.2192165,
    "lng": 67.2797596
  },
  {
    "name": "\"SAZANCHIK SURXON\" MCHJ",
    "address": "Ислом каримов",
    "lat": 37.219295,
    "lng": 67.28038833333333
  },
  {
    "name": "Абрах гроуп МЧЖ",
    "address": "Ойтумор кучаси",
    "lat": 37.21942333333333,
    "lng": 67.25824166666666
  },
  {
    "name": "ESHMAMATOV ISLOM FAYZULLA O‘G‘LI",
    "address": "Ислом Каримов",
    "lat": 37.2195789,
    "lng": 67.2803932
  },
  {
    "name": "Одесса-Сурхон ч\\ф",
    "address": "Термез шахар",
    "lat": 37.21958425361663,
    "lng": 67.2799848485738
  },
  {
    "name": "PRIMOVA ZIYODA ISLOMOVNA",
    "address": "Город Термез",
    "lat": 37.21960846,
    "lng": 67.30261226
  },
  {
    "name": "ALLANAZAROV MAMAYUSUF SOATMURATOVICH",
    "address": "taxta bozor",
    "lat": 37.219611830078065,
    "lng": 67.30278111062944
  },
  {
    "name": "Махлийо мчж узи",
    "address": "Термез шахар",
    "lat": 37.21962897107005,
    "lng": 67.27998275309801
  },
  {
    "name": "Махлиё м.ж",
    "address": "Термез шахар",
    "lat": 37.21965470351279,
    "lng": 67.28018643334508
  },
  {
    "name": "Аброр Сити 2020 мчж",
    "address": "Termiz shahar Xidoyat koʻchasi",
    "lat": 37.220322783105075,
    "lng": 67.28709949180484
  },
  {
    "name": "MUXAMMEDOVA YULDUZ NORKUL QIZI",
    "address": "город Термез ТЕРМИЗ Ш., МЕХРИОБОД МФЙ, САРОЙМУЛКХОНИМ,  uy:17/2",
    "lat": 37.2206515333057,
    "lng": 67.27580186654703
  },
  {
    "name": "Аманов Аман",
    "address": "Термез шахар",
    "lat": 37.2207155203371,
    "lng": 67.25786342718816
  },
  {
    "name": "BERDIKULOVA MAVLYUDA ISMADIYAROVNA",
    "address": "Термез шахар",
    "lat": 37.22072398290038,
    "lng": 67.28209566324949
  },
  {
    "name": "ESHBALTAYEVA AYTASH ISHKABILOVNA",
    "address": "Термез Шахар Ёшлар кучаси 22",
    "lat": 37.22077878,
    "lng": 67.30276432
  },
  {
    "name": "\"ENERGY TERMIZ\" MCHJ",
    "address": "Чулпон кучаси",
    "lat": 37.2212778,
    "lng": 67.2899824
  },
  {
    "name": "ARABOV RUSTAM ALLANAZAROVICH",
    "address": "Termiz shahar жиззах  koʻchasi",
    "lat": 37.22129996891658,
    "lng": 67.26811068871925
  },
  {
    "name": "ЯТТ Давлатова майрам",
    "address": "Термез шахар",
    "lat": 37.221447844058275,
    "lng": 67.28224636986852
  },
  {
    "name": "MAMAZIYOYEVA JUMAGUL RUSTAM QIZI",
    "address": "16 гародок",
    "lat": 37.22161267418414,
    "lng": 67.2832180839032
  },
  {
    "name": "Каримова Феруза",
    "address": "Термез шахар",
    "lat": 37.22172348294407,
    "lng": 67.28993718512356
  },
  {
    "name": "SAITKULOV FARXOD SHAMURATOVICH",
    "address": "Термиз шахар Тоханистон кучаси",
    "lat": 37.2218328,
    "lng": 67.28286765
  },
  {
    "name": "Зебинисо Бону",
    "address": "Термез шахар",
    "lat": 37.22187061,
    "lng": 67.2831018
  },
  {
    "name": "ASHUROVA GULBAXOR CHORIYEVNA",
    "address": "город Термез Сурхандарьинская область, Термез г., Амударё, дом 10",
    "lat": 37.22210510333496,
    "lng": 67.26737672427953
  },
  {
    "name": "RAXIMQULOV JASURBEK RAVSHAN O‘G‘LI",
    "address": "Термиз шахар Тараккиёт кучаси",
    "lat": 37.222138342558516,
    "lng": 67.27441237894138
  },
  {
    "name": "\"SOHIL BAXT ZIYO\" OK",
    "address": "сурхон сохил махаласи",
    "lat": 37.2221556,
    "lng": 67.3030316
  },
  {
    "name": "ЯТТ Мусаев Илхом",
    "address": "Термез шахар",
    "lat": 37.222418306981425,
    "lng": 67.27388665734586
  },
  {
    "name": "Хужамуродова робия",
    "address": "Термез шахар",
    "lat": 37.22242678088689,
    "lng": 67.26754166803258
  },
  {
    "name": "NORKULOVA DILNAVOZ MINGTURAYEVNA",
    "address": "Маржон кучаси 8 Б .уй",
    "lat": 37.22248137462884,
    "lng": 67.27934178896248
  },
  {
    "name": "ЯТТ Хасанова Ферузаа",
    "address": "Термез шахар",
    "lat": 37.22249222919345,
    "lng": 67.28397019207478
  },
  {
    "name": "\"JURABEK-OYBIBI\" OK",
    "address": "Otabek. Tuyhona. Yoni",
    "lat": 37.2227979,
    "lng": 67.284304
  },
  {
    "name": "Ятт Хуррамов Хожибек",
    "address": "город Термез Сурхандарьинская область, Термез г., Тупроққўрғон МФЙ, Рудакий, дом 5б, кв. 9",
    "lat": 37.2228096,
    "lng": 67.2795534
  },
  {
    "name": "XIDIROVA MUXABBAT MUXITDINOVNA",
    "address": "Термез шахар",
    "lat": 37.223095684312284,
    "lng": 67.28434788063169
  },
  {
    "name": "ЧОЙХОНА РЕСТАРАН",
    "address": "Термез шахар",
    "lat": 37.2232523,
    "lng": 67.2738795
  },
  {
    "name": "CHORIYEV ABROR ABDULXAKIMOVICH",
    "address": "термез шеснатсит",
    "lat": 37.22341553773731,
    "lng": 67.28465113788843
  },
  {
    "name": "IBRAGIMOVA DILAFRUZ ABDUJABBOROVNA 2",
    "address": "И.Каримов",
    "lat": 37.22348876,
    "lng": 67.2846902
  },
  {
    "name": "AMONOV BAXTIYORJON ISMOILOVICH",
    "address": "город Термез Сурхандарьинская область, Термез г., Фаровон хаёт МФЙ, С.Саодат, дом 154, кв. 35",
    "lat": 37.223875829949975,
    "lng": 67.28487317450345
  },
  {
    "name": "Доимова Райхон",
    "address": "Термез шахар",
    "lat": 37.223898680278985,
    "lng": 67.26849738937833
  },
  {
    "name": "RAXMATOVA AZIZA SAYDULLAYEVNA",
    "address": "Термезский район -, -",
    "lat": 37.22395663149655,
    "lng": 67.30357395485044
  },
  {
    "name": "RAIMOV YUSUF XASAN O‘G‘LI",
    "address": "тараккиёт кучаси",
    "lat": 37.2240599,
    "lng": 67.2733746
  },
  {
    "name": "OOO \"OSMAN FOODS SYSTEM",
    "address": "Термез шахар",
    "lat": 37.22412312,
    "lng": 67.27336212
  },
  {
    "name": "Бобомуродова Шахноза",
    "address": "Термез шахар",
    "lat": 37.224134153004954,
    "lng": 67.26948748705577
  },
  {
    "name": "\"TABAKA SENTR\" MCHJ",
    "address": "II OGAXIY 3  ",
    "lat": 37.2244027,
    "lng": 67.2732729
  },
  {
    "name": "ЯТТ Сафарова Маргуба",
    "address": "Термез шахар",
    "lat": 37.22444836720594,
    "lng": 67.27342102828513
  },
  {
    "name": "SAIDOVA MAKSUDA O‘RAKOVNA",
    "address": "Airatom mfy",
    "lat": 37.2244526,
    "lng": 67.2883453
  },
  {
    "name": "\"BINAFSHA-AMINA\" XK",
    "address": "йошлар маркази",
    "lat": 37.22464235406837,
    "lng": 67.2686656508624
  },
  {
    "name": "TURSUNOVA MUKADDASXON A’ZAMXONOVNA",
    "address": "Город Термез",
    "lat": 37.224663474456406,
    "lng": 67.25771768796658
  },
  {
    "name": "ятт Джуракулов Джура",
    "address": "Термез шахар",
    "lat": 37.224873974062994,
    "lng": 67.26732689027702
  },
  {
    "name": "ЯТТ Маматмуродов Омон",
    "address": "Термез шахар",
    "lat": 37.224881235305446,
    "lng": 67.26922380756085
  },
  {
    "name": "''JAYHUN SHAROB'' MCHJ (Термез)",
    "address": "Термиз шахар Мустанг ёни",
    "lat": 37.225022348575294,
    "lng": 67.25777464918792
  },
  {
    "name": "RAZZOQOV MIRANSHOH HIKMATULLOYEVICH",
    "address": "Денауский район -, -",
    "lat": 37.22516655921936,
    "lng": 67.28038952685893
  },
  {
    "name": "CHORIYEV ABROR ABDULXAKIMOVICH 3",
    "address": "Термиз шахар",
    "lat": 37.22516743931919,
    "lng": 67.28542017750442
  },
  {
    "name": "NAVRUZOVA DILRABO SHERALIYEVNA",
    "address": "город Термез ТЕРМИЗ Ш., МЕХРИОБОД МФЙ, ОЙСАНАМ,  uy:10/2",
    "lat": 37.22517712041736,
    "lng": 67.2881116066128
  },
  {
    "name": "Жумаева Дилфуза",
    "address": "Термез шахар",
    "lat": 37.225268056356384,
    "lng": 67.27245768919073
  },
  {
    "name": "ЧП \"TERMIZ-UMAR\" 5",
    "address": "Термиз шахар Ибн сино кучаси",
    "lat": 37.22549424972385,
    "lng": 67.2938791103661
  },
  {
    "name": "XO‘JANAZAROV SAMARIDDIN MAMATMUROD O‘G‘LI",
    "address": "Байсунский район ГАЗА МФЙ,  uy:00",
    "lat": 37.22553284845375,
    "lng": 67.28600434170515
  },
  {
    "name": "ЯТТ Бердийев Азизбек",
    "address": "Термез шахар",
    "lat": 37.22577667795122,
    "lng": 67.28701382875443
  },
  {
    "name": "Денов Ситй Сомса мчж",
    "address": "Термез шахар",
    "lat": 37.2261908,
    "lng": 67.28603
  },
  {
    "name": "ЧП \"KAMBAROV TIMUR IMPERIYASI\"",
    "address": "II TARAQQIYOT 7/12",
    "lat": 37.2262271,
    "lng": 67.2724007
  },
  {
    "name": "Кобул Дарбанд МЧЖ",
    "address": "Термез шахар",
    "lat": 37.2265606,
    "lng": 67.2755074
  },
  {
    "name": "TAGAYMURATOVA ZULFIYA TURABOVNA",
    "address": "15-уй",
    "lat": 37.2266553,
    "lng": 67.2888242
  },
  {
    "name": "The Taom mchj",
    "address": "Сурхондарё вилоят термиз шахри",
    "lat": 37.2266674,
    "lng": 67.2868778
  },
  {
    "name": "ЯТТ Бозоров Парда",
    "address": "Термез шахар",
    "lat": 37.226693239063025,
    "lng": 67.28710443712771
  },
  {
    "name": "ASHUROV AZIZBEK FAZLIDDIN O‘G‘LI",
    "address": "Термез шахар",
    "lat": 37.22671744783639,
    "lng": 67.27222876301506
  },
  {
    "name": "\"TERMIZ ELEKTRO VOLT\" MCHJ",
    "address": "Город Термез",
    "lat": 37.226759716170484,
    "lng": 67.2721844606926
  },
  {
    "name": "Ятт Фармонов шокир",
    "address": "Термез Тумани",
    "lat": 37.22685832064599,
    "lng": 67.30236176401377
  },
  {
    "name": "ЯТТ Буриева Гулчехра",
    "address": "Термез Тумани",
    "lat": 37.22690446302295,
    "lng": 67.3025692999363
  },
  {
    "name": "Файзли Суйун бобо мчж",
    "address": "Термез шахар",
    "lat": 37.22698142105212,
    "lng": 67.26655648441323
  },
  {
    "name": "Лофт Бурген",
    "address": "Термез шахар",
    "lat": 37.2271895,
    "lng": 67.2724242
  },
  {
    "name": "Иброхим Файзиддин",
    "address": "Термез шахар",
    "lat": 37.227201666666666,
    "lng": 67.272025
  },
  {
    "name": "\"MIMI MARKET\" MCHJ",
    "address": "Термиз Шахар",
    "lat": 37.22724384628236,
    "lng": 67.29973873123527
  },
  {
    "name": "ятт бобомуродова лайло",
    "address": "Термез шахар",
    "lat": 37.227309979498386,
    "lng": 67.2842815797776
  },
  {
    "name": "SULTONOVA MEHRINISO ABDULLOYEVNA",
    "address": "Termiz shahar Barkamol avlod koʻchasi",
    "lat": 37.2274367,
    "lng": 67.28516258
  },
  {
    "name": "Файзли Узбегим  сум мчж",
    "address": "Термез шахар",
    "lat": 37.22747617891524,
    "lng": 67.27192436243206
  },
  {
    "name": "\"JAHONGIR OLTIN BALIQLARI\" MCHJ",
    "address": "Шодлик МФЙ, Амир Темур кучаси, 35/1-уй",
    "lat": 37.2275204,
    "lng": 67.266941
  },
  {
    "name": "\"BAXT TASVIRI STUDIO\" MCHJ",
    "address": "Навбог 18б",
    "lat": 37.2275251,
    "lng": 67.270959
  },
  {
    "name": "Abdumurodova zebiniso",
    "address": "boy qishliq",
    "lat": 37.22767681349069,
    "lng": 67.30147638358176
  },
  {
    "name": "Склад Х.О Дефект Термез",
    "address": "",
    "lat": 37.2277093,
    "lng": 67.2549048
  },
  {
    "name": "Склад Х.О Ремонт",
    "address": "",
    "lat": 37.2277353,
    "lng": 67.25494866
  },
  {
    "name": "Склад Х.О Термез",
    "address": "Термез Ш",
    "lat": 37.2277631,
    "lng": 67.2549129
  },
  {
    "name": "Ягона замин туркистон",
    "address": "Термез шахар",
    "lat": 37.2279,
    "lng": 67.27240666666667
  },
  {
    "name": "TEMIROVA HABIBA BAXRIDDIN QIZI",
    "address": "термез шахар",
    "lat": 37.228042390197515,
    "lng": 67.29496674612164
  },
  {
    "name": "Махмуд Хожиакбар мчж",
    "address": "Термез шахар",
    "lat": 37.22808113,
    "lng": 67.25810663
  },
  {
    "name": "Айша Ладй х/к",
    "address": "Термез шахар",
    "lat": 37.2281124,
    "lng": 67.2647713
  },
  {
    "name": "Голд Мотхерланд мчж",
    "address": "taraqqiyot kochasi",
    "lat": 37.22822,
    "lng": 67.27211833333334
  },
  {
    "name": "Термиз Эко Траде 5",
    "address": "Термез шахар",
    "lat": 37.22840291819301,
    "lng": 67.26691151038693
  },
  {
    "name": "Davxonova Maral",
    "address": "Термиз шахар Doʻstlik mahallasi",
    "lat": 37.22842617802879,
    "lng": 67.26466492667967
  },
  {
    "name": "ЯТТ Алламродова Ханифа",
    "address": "Термез шахар",
    "lat": 37.2285529290864,
    "lng": 67.26205303074421
  },
  {
    "name": "SULTONOVA SAYYORAXON ABDUJABOROVNA",
    "address": "Термез шахар",
    "lat": 37.22863881957008,
    "lng": 67.26314517935428
  },
  {
    "name": "ЯТТ Холбойев Турамурод",
    "address": "Термез шахар",
    "lat": 37.22866800803757,
    "lng": 67.26549115302625
  },
  {
    "name": "\"SURXON GOLDIN START\" MCHJ",
    "address": "TARAQIYOT KO`CHASI 11 MANZILGOX",
    "lat": 37.2288377,
    "lng": 67.272093
  },
  {
    "name": "\"ALKO 555 TERMIZ\" MCHJ 2",
    "address": "Гулираъно МФЙ, Нашида кучаси, 10-уй",
    "lat": 37.228854722343385,
    "lng": 67.29104099795222
  },
  {
    "name": "AVAZOVA XURMATOY TASHPULATOVNA",
    "address": "город Термез НАВРУЗ МФЙ, НАВРУЗ МФЙ, А.ТЕМУР,  uy:92 xonadon:9",
    "lat": 37.22886323802652,
    "lng": 67.26827373279187
  },
  {
    "name": "Акбар Гроуп ТМЗ",
    "address": "Термез шахар",
    "lat": 37.2289084,
    "lng": 67.2786273
  },
  {
    "name": "ЯТТ Мирзакулов Мусурмонкул",
    "address": "Термез шахар",
    "lat": 37.2289868,
    "lng": 67.2904719
  },
  {
    "name": "Мобил Сервес мчж",
    "address": "Термез шахар",
    "lat": 37.229238333333335,
    "lng": 67.26990666666667
  },
  {
    "name": "ЯТТ Рузиев Турдимурод",
    "address": "Термез шахар",
    "lat": 37.229301666666665,
    "lng": 67.27008666666667
  },
  {
    "name": "ЯТТ Йулдошев Акмал",
    "address": "Термез шахар",
    "lat": 37.229440030641854,
    "lng": 67.29002326726913
  },
  {
    "name": "ТЕРМИЗ ШОУРМА ПЛУС (муз сарой)",
    "address": "Термез шахар",
    "lat": 37.2294534,
    "lng": 67.2783559
  },
  {
    "name": "Мубина бону Умид Сари мчж",
    "address": "Термез шахар",
    "lat": 37.22960026,
    "lng": 67.28977124
  },
  {
    "name": "ANGLESEY FOOD Термез Айсберг",
    "address": "Сурханд.область, город Термез, ул Х.Ат-Термизий , #8 манзилгох",
    "lat": 37.2296227,
    "lng": 67.277554
  },
  {
    "name": "AXMEDOVA JANG‘IL NORMUHAMMADOVNA",
    "address": "Сафар Сохибов кучаси",
    "lat": 37.229665514132364,
    "lng": 67.26831660125657
  },
  {
    "name": "ЯТТ Мухиддинова Феруза",
    "address": "Термез шахар",
    "lat": 37.22972660992749,
    "lng": 67.27382033088679
  },
  {
    "name": "ЯТТ Рахимов Бахтиёр",
    "address": "Термез шахар",
    "lat": 37.2299079686221,
    "lng": 67.26631740174157
  },
  {
    "name": "\"BUNYOD BAXRIDDIN YASMIN\" MCHJ",
    "address": "Guliston MFY, Fidokorlar ko'chasi, 28-uy",
    "lat": 37.229925892288406,
    "lng": 67.30764813128333
  },
  {
    "name": "IBRAGIMOVA DILAFRUZ ABDUJABBOROVNA",
    "address": "Термиз шахар Истомина кучаси",
    "lat": 37.22993167117238,
    "lng": 67.28544456884265
  },
  {
    "name": "\"IMRON BEST OIL\" MCHJ",
    "address": "Sherobod MFY, Umumxalq ko'chasi, 2-uy",
    "lat": 37.23012889735401,
    "lng": 67.29296682402492
  },
  {
    "name": "Натионал Трент МЧЖ",
    "address": "Термез шахар",
    "lat": 37.2301744253329,
    "lng": 67.2770667282358
  },
  {
    "name": "Унверсал мастер гроуп",
    "address": "Термиз Шахар",
    "lat": 37.2301965393126,
    "lng": 67.2930590249598
  },
  {
    "name": "DILNUR SURHON",
    "address": "I  ДЖАРКУРГАН, SURXON SOHILI MAHALLASI O`ZBEKISTON KO`CHASI 12 UY",
    "lat": 37.2302305,
    "lng": 67.2714068
  },
  {
    "name": "KARDJOVOVA IBODAT NURMATOVNA",
    "address": "город Термез ТЕРМИЗ Ш., БАЙНАЛМИНАЛ МФЙ, ШИМОЛИЙ ДАРВОЗА 7-БУРИЛИШ 4-БОШИ БЕРК,  uy:13",
    "lat": 37.230257637302486,
    "lng": 67.25835659038114
  },
  {
    "name": "SHARIPOVA FARZONA SAFARMAXMADOVNA",
    "address": "Байсунский район БАЙСУНСКИЙ РАЙОН ТЕМИР ДАРВОЗА МАХАЛЛАСИ КАПЧИГАЙ КИШЛОГИ Д.0, 0",
    "lat": 37.230368470244116,
    "lng": 67.2642323680939
  },
  {
    "name": "AVAZOVA GULASAL BOBOKELDIYEVNA",
    "address": "Термиз Шахар",
    "lat": 37.2304346053743,
    "lng": 67.25344650316846
  },
  {
    "name": "\"OMAD OTABEK IMOMBEK\" OK",
    "address": "саховат мфй",
    "lat": 37.230494,
    "lng": 67.2534409
  },
  {
    "name": "СП \"TERMEZ MAMADJON\"",
    "address": "Termiz shahar Iso at termiziy koʻchasi",
    "lat": 37.23053917724286,
    "lng": 67.26526594946962
  },
  {
    "name": "Покиза мчж",
    "address": "Термез шахар",
    "lat": 37.230607372351294,
    "lng": 67.28036383220717
  },
  {
    "name": "SUYUNDUKOV JAMSHID ESHDAVLATOVICH",
    "address": "Термиз Шахар",
    "lat": 37.230796263016906,
    "lng": 67.30768623813323
  },
  {
    "name": "ABDUG‘ANIYEV ABDURASHID ABDUG‘AFUR  O‘G‘LI",
    "address": "Термиз шахар истомина кучаси",
    "lat": 37.23084781318903,
    "lng": 67.28512479923666
  },
  {
    "name": "Бекназар Савдо",
    "address": "Термез шахар",
    "lat": 37.23088527574428,
    "lng": 67.26405258768419
  },
  {
    "name": "NASRIDDINOV NOZIMBEK NODIR O‘G‘LI",
    "address": "город Термез Сурхандарьинская область, Термез г., Турон МФЙ, А.Темур, дом 87а, кв. 15",
    "lat": 37.2309279,
    "lng": 67.2720625
  },
  {
    "name": "Озодбек Бахром Ойбек ок",
    "address": "Термез шахар",
    "lat": 37.231077,
    "lng": 67.2571069
  },
  {
    "name": "RASULOVA GULSHAN QURBANNIYOZ QIZI",
    "address": "город Термез Богишамол МФЙ, Фаровон 1-мавзе мавзеси, 22-уй, 17-хонадон",
    "lat": 37.231079032915225,
    "lng": 67.25666840085644
  },
  {
    "name": "ЯТТ Кодирова Нигина",
    "address": "Термез шахар",
    "lat": 37.23114402964711,
    "lng": 67.29561139829457
  },
  {
    "name": "\"ALIF SOMSA\" OK",
    "address": "Saxovat MFY, Mexridaryo ko'chasi, 1-uy, 16-xonadon",
    "lat": 37.2311838,
    "lng": 67.2581571
  },
  {
    "name": "O‘ROQOV BEGALI BAHODIR O‘G‘LI",
    "address": "г.ТЕРМЕЗ Сурхандарьинская область, Термез г., Турон МФЙ, Беруний, дом 6а, кв. 8",
    "lat": 37.23137270741306,
    "lng": 67.25799724595782
  },
  {
    "name": "XO‘JAMQULOV FARXOD NURMAMAT O‘G‘LI",
    "address": "Город Термез",
    "lat": 37.23148531113645,
    "lng": 67.25673670093114
  },
  {
    "name": "Камолова Нилуфар",
    "address": "авто вокзал",
    "lat": 37.23152148,
    "lng": 67.25679114
  },
  {
    "name": "ECONOMIC-TRADE MCHJ",
    "address": "термез шахар",
    "lat": 37.23159785,
    "lng": 67.29536276
  },
  {
    "name": "ABRAKULOVA TAMARA ZAYROVNA",
    "address": "Термиз Шахар",
    "lat": 37.23169951292463,
    "lng": 67.25945084041442
  },
  {
    "name": "XOLMIRZAYEVA FARZONA ANVAROVNA",
    "address": "Термиз Шахар",
    "lat": 37.23170542702407,
    "lng": 67.26472602251742
  },
  {
    "name": "\"DENOV ORIGINAL\" MCHJ",
    "address": "Термиз Шахар",
    "lat": 37.231715,
    "lng": 67.2957561
  },
  {
    "name": "XOLLIYEV FOZIL BAXTIYOR O‘G‘LI",
    "address": "Детски балнитса томон",
    "lat": 37.231719614181294,
    "lng": 67.26000309417894
  },
  {
    "name": "Абдугани Аббосбек озодбек барака",
    "address": "термез шахар шеснаст",
    "lat": 37.231723722070456,
    "lng": 67.295749951154
  },
  {
    "name": "\"PLAYERS CLUB\" MCHJ",
    "address": "Термиз шахар Умид  кучаси",
    "lat": 37.23193660272091,
    "lng": 67.27877147037343
  },
  {
    "name": "Рузи Полвон х/к",
    "address": "Термез шахар",
    "lat": 37.232048,
    "lng": 67.2952499
  },
  {
    "name": "RAUPOVA FIRUZA ULUG‘BEK QIZI",
    "address": "город Термез ТЕРМИЗ Ш., СУРХОН СОҲИЛИ МФЙ, ЖИЗЗАХ КЎЧАСИ,  uy:26Б",
    "lat": 37.23209382013734,
    "lng": 67.30824455476836
  },
  {
    "name": "MAMARAIMOVA UGULBEKA MUXAMEDOVNA",
    "address": "Термиз Шахар",
    "lat": 37.23211331292987,
    "lng": 67.29788163676858
  },
  {
    "name": "Кушон Идиал Лойиха",
    "address": "Термез шахар",
    "lat": 37.2321327,
    "lng": 67.2591752
  },
  {
    "name": "ARZEKULOVA UMIDA MURADOVNA",
    "address": "город Термез ТЕРМИЗ Ш., ОРАСТА МФЙ, ОРАСТА МФЙ, А.НАВОИЙ,  uy:37А xonadon:7",
    "lat": 37.23220793,
    "lng": 67.30857105
  },
  {
    "name": "Шеробод мужизаси",
    "address": "Ибн Сино, дом 135/1",
    "lat": 37.23234880249947,
    "lng": 67.28460336104035
  },
  {
    "name": "ЧП \"ZUFARBEK TA`MINOTCHI\"",
    "address": "MANGUZAR MAHALLASI ZARAFSHON KO`CHASI, 43-UY  ",
    "lat": 37.23265575,
    "lng": 67.2664714
  },
  {
    "name": "ХАЁТ БАРАКА СУРХОН Х/К 2",
    "address": "Термез шахар Умид кучаси",
    "lat": 37.23278078,
    "lng": 67.27840805
  },
  {
    "name": "SHERNAZAROVA GULNORA ABDIKARIMOVNA",
    "address": "Termiz shaxar",
    "lat": 37.23288166666667,
    "lng": 67.27909500000001
  },
  {
    "name": "ЧП \"ESCOBAR\" 2",
    "address": "саховат мфй",
    "lat": 37.23292704789668,
    "lng": 67.2593247666918
  },
  {
    "name": "Дубай Х/К",
    "address": "Термез шахар",
    "lat": 37.2330558,
    "lng": 67.27755031
  },
  {
    "name": "BEKMUROVA MAVJUDA NORMEYLIYEVNA",
    "address": "Саховат мфй",
    "lat": 37.2330963446748,
    "lng": 67.2594995948934
  },
  {
    "name": "Жовлиев Азамат",
    "address": "Термез шахар",
    "lat": 37.2332506,
    "lng": 67.2983536
  },
  {
    "name": "\"RESISTANT-GROUP\" MCHJ",
    "address": "termez shaxar",
    "lat": 37.23334833333333,
    "lng": 67.28835833333332
  },
  {
    "name": "BEKNAZAROV SHODIMAXMAT JO‘RAQULOVICH",
    "address": "Байсунский район -, -",
    "lat": 37.233357516167615,
    "lng": 67.30840819682452
  },
  {
    "name": "DUSALOV JAMSHID ISHMUXAMADOVICH",
    "address": "точки:termez shaxar Термиз  Давлат унверситети",
    "lat": 37.23343157675117,
    "lng": 67.29160744696856
  },
  {
    "name": "VAXOBOVA SALOMAT SUBONOVNA",
    "address": "Джаркурганский район -, -",
    "lat": 37.23344515212529,
    "lng": 67.27958494075158
  },
  {
    "name": "\"TERMIZ TEZKOR DILMUROD\" MCHJ",
    "address": "Oʻzbekiston MFY, Alisher Navoiy ko'chasi, 41 д-uy",
    "lat": 37.23377163056284,
    "lng": 67.29120947420597
  },
  {
    "name": "\"TERMIZ TEZKOR DILMUROD\" MCHJ2",
    "address": "Oʻzbekiston MFY, Alisher Navoiy ko'chasi, 41 д-uy",
    "lat": 37.233810145407915,
    "lng": 67.29117192327976
  },
  {
    "name": "ЯТТ Сохибкор Дустлик",
    "address": "Термез шахар",
    "lat": 37.23388017620891,
    "lng": 67.28274987079203
  },
  {
    "name": "ELMAMATOVA MUNOJAT UCHQUR QIZI",
    "address": "каттабог маххаласи",
    "lat": 37.23398516,
    "lng": 67.31155722
  },
  {
    "name": "Тураева Лайло",
    "address": "Шеснатст",
    "lat": 37.23411438,
    "lng": 67.29981725
  },
  {
    "name": "ABDUVOXITOV MANSUR XOLMUROD O‘G‘LI",
    "address": "Термиз Шахар",
    "lat": 37.2341201,
    "lng": 67.29984447
  },
  {
    "name": "Мусулмонов Жасурбек",
    "address": "Термез шахар",
    "lat": 37.23412228748202,
    "lng": 67.28407831862569
  },
  {
    "name": "\"RESISTANT-GROUP\" MCHJ 2",
    "address": "Лев Толстой кучаси",
    "lat": 37.23414329,
    "lng": 67.28821125
  },
  {
    "name": "ЯТТ мингбойева камола",
    "address": "Термез шахар",
    "lat": 37.23427199,
    "lng": 67.29884366
  },
  {
    "name": "NORMATOV UMID RAMAZON O‘G‘LI",
    "address": "узбекистон маххаласи",
    "lat": 37.2342874,
    "lng": 67.2904868
  },
  {
    "name": "FEEDUP ECO Termez 2",
    "address": "Термиз шахар",
    "lat": 37.23431124,
    "lng": 67.2838923
  },
  {
    "name": "AVAZOV NODIR XOLMIRZA O‘G‘LI",
    "address": "ат термизий маххаласи",
    "lat": 37.23441585928838,
    "lng": 67.27811836381866
  },
  {
    "name": "BABAYEV NURMUXAMAD TURDIYEVICH",
    "address": "Имом Ат-Термизий",
    "lat": 37.23442746,
    "lng": 67.27776086
  },
  {
    "name": "Сурхон Асали Х/К",
    "address": "Термез шахар",
    "lat": 37.23445404773076,
    "lng": 67.25861029047488
  },
  {
    "name": "ЯТТ Ражабов Азизбек",
    "address": "Термез шахар",
    "lat": 37.2345234034583,
    "lng": 67.28163281455636
  },
  {
    "name": "Ансор Термез",
    "address": "Амир Тимур кучаси",
    "lat": 37.23458004,
    "lng": 67.26484583
  },
  {
    "name": "Камалак Тезкор",
    "address": "сохил",
    "lat": 37.23464894,
    "lng": 67.31981728
  },
  {
    "name": "DOROBOV SHAXZOD KAMOL O‘G‘LI",
    "address": "город Термез Сурхандарьинская область, Термез г., Ўзбекистон МФЙ, А.Навоий, дом 48а, кв. 13",
    "lat": 37.23466765601188,
    "lng": 67.29274788871408
  },
  {
    "name": "ISOKULOV RUSTAM ZIYADULLAYEVICH",
    "address": "unversitet kolsa yoni",
    "lat": 37.23468902986497,
    "lng": 67.28197915479541
  },
  {
    "name": "PAYANOVA SHADIGUL ERGASHOVNA",
    "address": "термез шахар",
    "lat": 37.23474326077849,
    "lng": 67.29225972667336
  },
  {
    "name": "ЯТТ Зойиров Абдусаттор",
    "address": "Термез шахар",
    "lat": 37.23474526963485,
    "lng": 67.25759155980694
  },
  {
    "name": "DONIYAROVA UG‘ILOY BOXTIYAR QIZI",
    "address": "город Термез ТЕРМИЗ Ш., ЎЗБЕГИМ МФЙ, ИБН СИНО,  uy:22 xonadon:9",
    "lat": 37.234892793587825,
    "lng": 67.2787294731551
  },
  {
    "name": "\"XOJIAKBAR MOHINUR SHAHZODA\" OK",
    "address": "Гулистон МФЙ, Фидокор кучаси, 19Б-уй",
    "lat": 37.23491168510117,
    "lng": 67.31268739470954
  },
  {
    "name": "\"X TOUR\" MCHJ",
    "address": "Насимий аптека олди",
    "lat": 37.2349735482938,
    "lng": 67.28139291933404
  },
  {
    "name": "TO‘RAMURODOV BEHRUZ OTABEKOVICH",
    "address": "Алишер Навоий 32",
    "lat": 37.23498683888465,
    "lng": 67.28007805533707
  },
  {
    "name": "TOSHMURODOVA FARIDA FAXRIDDINOVNA",
    "address": "Город Термез",
    "lat": 37.2350254,
    "lng": 67.2867682
  },
  {
    "name": "ЯТТ Салихов Ботир",
    "address": "Термез шахар",
    "lat": 37.2350369835252,
    "lng": 67.26467532108728
  },
  {
    "name": "Эзоз Лаваш мчж",
    "address": "Термез шахар",
    "lat": 37.23509349,
    "lng": 67.2788815
  },
  {
    "name": "ЯТТ Хуррамова Гавхар",
    "address": "Термез шахар",
    "lat": 37.23509674208276,
    "lng": 67.25783550421984
  },
  {
    "name": "ООО \"SURXON AUTO LEADER\" 2",
    "address": "termez shaxar",
    "lat": 37.23510307,
    "lng": 67.31321448
  },
  {
    "name": "CHORIYEV ABROR ABDULXAKIMOVICH 2",
    "address": "АЛТЫНСАЙСКИЙ р-н ВАХШИВАР ТУХТАМИШ МАХАЛЛАСИ ВАХШИВОР ТУХТАМИШ КИШЛОГИ Д.0, 0",
    "lat": 37.235138048417866,
    "lng": 67.28004427626729
  },
  {
    "name": "ЯТТ Холёрова Нозанин",
    "address": "Термез шахар",
    "lat": 37.23516755271703,
    "lng": 67.29211673140526
  },
  {
    "name": "JUMAQULOVA GULG‘UNCHA QURBONMUROTOVNA",
    "address": "термез шахар",
    "lat": 37.23517379723489,
    "lng": 67.2913929540664
  },
  {
    "name": "XALLIYEV MUXIDDIN BAXTIYOROVICH",
    "address": "Термез шахар",
    "lat": 37.235204223543406,
    "lng": 67.28211242705584
  },
  {
    "name": "ACHILOVA KAMOLA ABDUSAMATOVNA",
    "address": "город Термез Сурхандарьинская область, Термез г., Амударё, дом 25",
    "lat": 37.235214659012854,
    "lng": 67.28221971541643
  },
  {
    "name": "SAFAROVA FATMA XURRAMOVNA",
    "address": "Термиз шахар ислом каримов кучаси",
    "lat": 37.2352282,
    "lng": 67.2995877
  },
  {
    "name": "Лимон Спорт",
    "address": "Термез шахар",
    "lat": 37.23523211632229,
    "lng": 67.26362576034315
  },
  {
    "name": "ЯТТ Жалилова Гавхар",
    "address": "Термез шахар",
    "lat": 37.2352487,
    "lng": 67.2806082
  },
  {
    "name": "Ойбек Али Шароб мчж",
    "address": "Термез шахар",
    "lat": 37.235298226587474,
    "lng": 67.28053336031735
  },
  {
    "name": "Ашуров Назокат",
    "address": "Термез шахар",
    "lat": 37.23540450911969,
    "lng": 67.28234619833529
  },
  {
    "name": "XAITMURATOV SHUXRAT BEKMURATOVICH",
    "address": "Термезский район ЯНГИАРИК КФЙ, ТЕРМИЗ МФЙ,  uy:00",
    "lat": 37.235515024513006,
    "lng": 67.29194775223732
  },
  {
    "name": "Фарход Ширин Термиз х/к",
    "address": "Термез шахар",
    "lat": 37.2355201,
    "lng": 67.2887146
  },
  {
    "name": "KAMOLIDDINOV JASUR MAMARAJAB O‘G‘LI 2",
    "address": "Ибин Сино",
    "lat": 37.2356267,
    "lng": 67.2639821
  },
  {
    "name": "Термиз шарбати мчж достон",
    "address": "Termiz shahar rudakiy koʻchasi",
    "lat": 37.23564406391233,
    "lng": 67.27942996658385
  },
  {
    "name": "\"AZIZBEK ASILBEK FARM\" ХK",
    "address": "Термиз шахар А.Навоий кучаси",
    "lat": 37.2356878593564,
    "lng": 67.29016341269016
  },
  {
    "name": "Турт Ака Ука о/к",
    "address": "Термез шахар",
    "lat": 37.2357448,
    "lng": 67.3139724
  },
  {
    "name": "KASIMOVA ZULFIYA CHORSHANBIYEVNA",
    "address": "Alisher Navoiy kuchasi",
    "lat": 37.23577927563039,
    "lng": 67.27925823359473
  },
  {
    "name": "ЯТТ Худойбердиева Замира",
    "address": "Термез шахар",
    "lat": 37.235818892169185,
    "lng": 67.26417465832509
  },
  {
    "name": "\"MARJONA CHAROS TERMIZ\" MCHJ",
    "address": "Термез шахар",
    "lat": 37.23585913,
    "lng": 67.29002499
  },
  {
    "name": "\"TEZKOR SHIRIN\" MCHJ",
    "address": "eski kapretrvni kollej",
    "lat": 37.23586059,
    "lng": 67.30240313
  },
  {
    "name": "СИФАТЛИ ЧЕХБУРГЕР МЧЖ",
    "address": "Термез шахар",
    "lat": 37.23587,
    "lng": 67.28840333333332
  },
  {
    "name": "ООО БАРХАЁТ ОКС ТРАДЕ",
    "address": "Термез шахар",
    "lat": 37.23587712273002,
    "lng": 67.2899750713259
  },
  {
    "name": "Дилшод Инвест Омад х/к",
    "address": "Термез шахар",
    "lat": 37.23598178,
    "lng": 67.30182685
  },
  {
    "name": "Ytt \"XALILOOV ASLIDDIN XUSNIDDIN\"",
    "address": "Термез ш. Охунбобоев кучаси 16 уй",
    "lat": 37.235998770873834,
    "lng": 67.25569171810086
  },
  {
    "name": "GRADUSS 776",
    "address": "город Термез Богишамол МФЙ, Атиргул кучаси, 1б-уй",
    "lat": 37.23607408,
    "lng": 67.30292554
  },
  {
    "name": "VOXIDOV NURIDDIN SHUKUROVICH",
    "address": "город Термез ТЕРМИЗ Ш., САХОВАТ МФЙ, УЧКУН КЎЧАСИ,  uy:43В",
    "lat": 37.23610865797655,
    "lng": 67.25655254673441
  },
  {
    "name": "ЯТТ Валикулова Нигора",
    "address": "Термез шахар",
    "lat": 37.2361416,
    "lng": 67.2916644
  },
  {
    "name": "ЯТТ Мусаев Шухрат",
    "address": "Термез шахар",
    "lat": 37.23615094202811,
    "lng": 67.2692744752527
  },
  {
    "name": "TOG‘AYEV G‘IYOSJON TOLIBOY O‘G‘LI",
    "address": "г.ТЕРМЕЗ Г. ТЕРМЕЗ ШИФОКОР ИБН-СИНО 43 КВ Д.27 КВ.37, 27, 37",
    "lat": 37.236171933488635,
    "lng": 67.25915735372352
  },
  {
    "name": "\"BOBURBOY ANGOR TERMIZ\" MCHJ",
    "address": "Алишер Навоий кучаси",
    "lat": 37.2362793,
    "lng": 67.2920222
  },
  {
    "name": "ЧП \"AKMAL-ISHONCH\"",
    "address": "II---AT TEMUR  KO`CHASI  137 MANZILGOX",
    "lat": 37.2362932,
    "lng": 67.291939
  },
  {
    "name": "Ятт Садийев Тожиддин 2",
    "address": "Термез шахар",
    "lat": 37.23637429531664,
    "lng": 67.28242415003479
  },
  {
    "name": "Нормуратова Рано",
    "address": "Термез шахар",
    "lat": 37.236401,
    "lng": 67.2781989
  },
  {
    "name": "SHOMURADOV JALOLIDDIN JAMSHIDOVICH",
    "address": "Термиз Шахар",
    "lat": 37.23651819,
    "lng": 67.31537364
  },
  {
    "name": "Ятт Бобокулова Ойгул",
    "address": "Термез шахар",
    "lat": 37.2365627,
    "lng": 67.3046427
  },
  {
    "name": "Эко Атмасфера Сурхон",
    "address": "Термез шахар",
    "lat": 37.2366997,
    "lng": 67.2795227
  },
  {
    "name": "ALLAYAROV SHERKUL MUSULMANOVICH",
    "address": "Термез шахар А.Навойи махалласи",
    "lat": 37.2367636,
    "lng": 67.2786042
  },
  {
    "name": "ЯТТ Шоврукова Саховатхон",
    "address": "Термез шахар",
    "lat": 37.23678101,
    "lng": 67.31475104
  },
  {
    "name": "\"BAHTIYOR FAYZ SURXON\" MCHJ",
    "address": "жайхун  маххаласи",
    "lat": 37.236838485114276,
    "lng": 67.28238123469055
  },
  {
    "name": "\"FALCON  TERMIZ MEN`S\" MCHJ",
    "address": "А.Навоий",
    "lat": 37.2368886,
    "lng": 67.2934017
  },
  {
    "name": "KURBONMURATOV JONIBEK BOTIR O‘G‘LI",
    "address": "город Термез Чегара МФЙ, Адолат кучаси, 45-уй",
    "lat": 37.2368991285857,
    "lng": 67.27970010734111
  },
  {
    "name": "Билол Умар Траде мчж",
    "address": "Термез шахар",
    "lat": 37.23690499551594,
    "lng": 67.27927724830806
  },
  {
    "name": "RO‘ZIYEV SHOXRUX BAXODIROVICH",
    "address": "город Термез ТЕРМИЗ Ш., ШИФОКОР МФЙ, Б.МАРГИЛОНИЙ,  uy:71А",
    "lat": 37.236920250579715,
    "lng": 67.27927917614579
  },
  {
    "name": "\"TERMIZ-OTASH\" MCHJ",
    "address": "северный",
    "lat": 37.2369664,
    "lng": 67.2629779
  },
  {
    "name": "RO‘ZIYEV UMIDJON FAYZULLA O‘G‘LI",
    "address": "саховат мфй",
    "lat": 37.23699622871474,
    "lng": 67.2546566994461
  },
  {
    "name": "Шахризода Термез мчж",
    "address": "Термез шахар",
    "lat": 37.23708914683333,
    "lng": 67.2553675116224
  },
  {
    "name": "ЯТТ Максудов Абдуманон",
    "address": "Термез шахар",
    "lat": 37.2371079,
    "lng": 67.279414
  },
  {
    "name": "ДДМ Мохинур о/к",
    "address": "Алишер Навоий кучаси",
    "lat": 37.23711973,
    "lng": 67.2878039
  },
  {
    "name": "\"TARNADO TOYS\" MCHJ",
    "address": "шифокор мфй",
    "lat": 37.23714589141309,
    "lng": 67.283233422786
  },
  {
    "name": "Зиннур Сурхон мчж",
    "address": "Термез шахар",
    "lat": 37.2371577,
    "lng": 67.2552431
  },
  {
    "name": "Амина Динара Гузаля",
    "address": "Алишер Навоий кучаси",
    "lat": 37.2371778,
    "lng": 67.2781807
  },
  {
    "name": "YTT RAUFOV KOMIL ABDUXAMIDOVIGH",
    "address": "17 maktab oldi",
    "lat": 37.237188509646096,
    "lng": 67.31843632358587
  },
  {
    "name": "NORMATOVA XADICHA NORMURATOVNA",
    "address": "Термиз Шахар журабаева",
    "lat": 37.23724272528858,
    "lng": 67.26779295296842
  },
  {
    "name": "ЯТТ Рузиева Нулуфар",
    "address": "Термез шахар",
    "lat": 37.23725018479145,
    "lng": 67.25498017502824
  },
  {
    "name": "IMOMOV JUMANAZAR G‘ANI O‘G‘LI",
    "address": "термез шахар",
    "lat": 37.23730714,
    "lng": 67.31694236
  },
  {
    "name": "TILOVOV MAXMUD BOTIROVICH",
    "address": "город Термез Сурхандарьинская область, Термез г., ул. Фидокор 1-муюлиш 1-боши берк, дом 15",
    "lat": 37.23733582533896,
    "lng": 67.28737659752369
  },
  {
    "name": "ЧП \"SHODMON SHODLIK\"",
    "address": "III TOXARISTON, 122B",
    "lat": 37.2373465,
    "lng": 67.3237745
  },
  {
    "name": "Хумо Баракат Термез",
    "address": "Термез шахар",
    "lat": 37.23737666666667,
    "lng": 67.2797
  },
  {
    "name": "Азиз умар термез",
    "address": "Термез шахар",
    "lat": 37.23749822,
    "lng": 67.29714421
  },
  {
    "name": "SHOYMARDONOV ASILBEK  ISLOM",
    "address": "термез шахар",
    "lat": 37.23752262282249,
    "lng": 67.25279773640602
  },
  {
    "name": "ЯТТ Термез Муродкул Норалиевич",
    "address": "Термез шахар",
    "lat": 37.23767717834562,
    "lng": 67.28533769957721
  },
  {
    "name": "Хасанова Шоира ятт",
    "address": "Термез Шахар",
    "lat": 37.2377466,
    "lng": 67.31944911
  },
  {
    "name": "\"SURXON SHARBATLARI 505\" MCHJ",
    "address": "Шифокор МФЙ, Ибн-Сино кучаси, 29-уй, 3-дукон-хонадон  ",
    "lat": 37.23776543978602,
    "lng": 67.27974814362824
  },
  {
    "name": "AVDAROVA LOLA XOLMUMINOVNA",
    "address": "город Термез ТЕРМИЗ Ш., ЎЗБЕКИСТОН МФЙ, ЎЗБЕКИСТОН МФЙ, А.НАВОИЙ,  uy:40 xonadon:1",
    "lat": 37.23782901664907,
    "lng": 67.27392637143649
  },
  {
    "name": "JABBAROVA NOZIMA ILXOM QIZI",
    "address": "Город Термез",
    "lat": 37.2378554,
    "lng": 67.2541173
  },
  {
    "name": "ORTIQOV RUSTAM QUVANDIQOVICH 2",
    "address": "Термиз шахар Yubleniy",
    "lat": 37.23785730544478,
    "lng": 67.27877450175583
  },
  {
    "name": "JO‘RAYEVA DILOROM RAVSHANOVNA",
    "address": "байналминал",
    "lat": 37.23787463946504,
    "lng": 67.2550487765133
  },
  {
    "name": "ASHUROVA MUQQADAS BAXTIYOROVNA",
    "address": "юблени бозор",
    "lat": 37.237924821674824,
    "lng": 67.27979214861989
  },
  {
    "name": "ЯТТ Абдухоликова Барно",
    "address": "Термез шахар",
    "lat": 37.237928409137716,
    "lng": 67.26643595619305
  },
  {
    "name": "\"MUBINA ZAMIN KELAJAGI BUYUK\" MCHJ",
    "address": "турон мфй",
    "lat": 37.2379385,
    "lng": 67.2556824
  },
  {
    "name": "YO‘LDASHEV SHAHZOD BAHODIR O‘G‘LI",
    "address": "Термиз шахар А.Навоий кучаси",
    "lat": 37.23794569261372,
    "lng": 67.29369018226862
  },
  {
    "name": "\"UNVERSAL BEZNIS CLASS\" MCHJ",
    "address": "Шифокор МФЙ, Шифокорлар кучаси, 21б-уй  ",
    "lat": 37.2379628,
    "lng": 67.293935
  },
  {
    "name": "\"ANGLESEY FOOD\" MCHJ XK К200 Термез 3 Шахристан, Навои 50А",
    "address": "Сурханд.область, город Термез, ул Навои 50А",
    "lat": 37.237971,
    "lng": 67.2938753
  },
  {
    "name": "ООО \"TERMIZ PLATINUM\"",
    "address": "малака ошириш",
    "lat": 37.23798277,
    "lng": 67.25690119
  },
  {
    "name": "FAYZULLAYEV G‘AYRAT SHOPO‘LAT O‘G‘LI",
    "address": "город Термез ТЕРМИЗ Ш., ЖЎЙЖАНГАЛ МФЙ, МЕХР-МУРУВВАТ,  uy:20/4",
    "lat": 37.23799463,
    "lng": 67.32161018
  },
  {
    "name": "Термез Шарбати",
    "address": "Термез шахар",
    "lat": 37.23802410531789,
    "lng": 67.29373024776578
  },
  {
    "name": "XAYNAZAROV NIZOMIDDIN TURAKULOVICH",
    "address": "Термиз Шахар",
    "lat": 37.23804497625679,
    "lng": 67.27786799892783
  },
  {
    "name": "ABDULLAYEV BOBIRJON BAXRIDINOVICH",
    "address": "М39 трасса",
    "lat": 37.2380693,
    "lng": 67.2538973
  },
  {
    "name": "Макро Маркет х/к",
    "address": "Термез шахар",
    "lat": 37.23808895768628,
    "lng": 67.31879951636877
  },
  {
    "name": "DUSTLIK-LOBAR MLM XK1",
    "address": "IV ПАТТАКЕСАРСУРХАНДАРЬИНСКАЯ ОБЛАСТЬ, ТЕРМЕЗСКИ",
    "lat": 37.23810727,
    "lng": 67.32055193
  },
  {
    "name": "ЯТТ Саидназарова Махбуба",
    "address": "Термез шахар",
    "lat": 37.23814975004643,
    "lng": 67.2805895190686
  },
  {
    "name": "ЯТТ Чупанов Юсуф",
    "address": "Термез шахар",
    "lat": 37.23817,
    "lng": 67.30387666666667
  },
  {
    "name": "ESANOVA MUXAYYO JABBAROVNA",
    "address": "Город Термез",
    "lat": 37.23821403924376,
    "lng": 67.28372937999666
  },
  {
    "name": "ESHNIYOZOVA AZIZA SHUHRAT QIZI",
    "address": "город Термез Юлдуз МФЙ, Баховуддин Накшбандий кучаси, 84-уй, 1-хонадон",
    "lat": 37.23826072,
    "lng": 67.27219319
  },
  {
    "name": "ЯТТ Хайитназарова Хадича",
    "address": "Термез шахар",
    "lat": 37.238278519964226,
    "lng": 67.27340966867526
  },
  {
    "name": "ABDULQOSIMOVA HAFOSAT NUSRATXON",
    "address": "Термез шахар",
    "lat": 37.23831328097731,
    "lng": 67.2810816206038
  },
  {
    "name": "\"XABIBBEK\" MCHJ",
    "address": "termez shaxar",
    "lat": 37.23831949117813,
    "lng": 67.27064870853887
  },
  {
    "name": "G‘AFULOVA GO‘ZAL ABDUXOLIKOVNA",
    "address": "Термез шахар",
    "lat": 37.2383394,
    "lng": 67.273301
  },
  {
    "name": "Ясмин Милинум мчж",
    "address": "Термез шахар",
    "lat": 37.23836202,
    "lng": 67.30386402
  },
  {
    "name": "\"ELSEVAR EZOZA\" OK",
    "address": "shaxar tez tibbiy yordam yoni",
    "lat": 37.238394166342914,
    "lng": 67.28069202974439
  },
  {
    "name": "XUDOYBERDIYEVA GULRUXSOR SHAYDULOVNA",
    "address": "Байсунский район -, -",
    "lat": 37.23842983744758,
    "lng": 67.27197917269612
  },
  {
    "name": "\"TANTANA TERMIZ\" MCHJ",
    "address": "Сурхондарё вилоят термиз шахри",
    "lat": 37.23844666666666,
    "lng": 67.30605999999999
  },
  {
    "name": "SAFAROVA MARVARID NURALIYEVNA",
    "address": "город Термез Бустон МФЙ, Ал хаким ат-Термизий кучаси, 33-уй, 54-хонадон",
    "lat": 37.238464783877134,
    "lng": 67.27822565473616
  },
  {
    "name": "\"QURILISH KAPITAL SAVDO\" XK",
    "address": "термиз шахар",
    "lat": 37.23849532,
    "lng": 67.26695807
  },
  {
    "name": "GALLIYEV SHAHBOZ SHAVKATOVICH",
    "address": "viloyat raddom oldi",
    "lat": 37.23870061,
    "lng": 67.30865906
  },
  {
    "name": "NASIROV ASLIDDIN TIRKASH O‘G‘LI",
    "address": "И.Каримов кучаси",
    "lat": 37.2387831,
    "lng": 67.3065624
  },
  {
    "name": "ANGLESEY FOOD XK Термез Юбилейный",
    "address": "Сурханд.область, город Термез, Алпомиш МФЙ, Al hakim al Termeziy ko’chasi , 28d uy",
    "lat": 37.2388238,
    "lng": 67.2815579
  },
  {
    "name": "MUSURMONOVA SHAHODAT XOLBOY QIZI",
    "address": "Термиз Шахар",
    "lat": 37.23884830536639,
    "lng": 67.26747031573784
  },
  {
    "name": "ЧП \"SAMOVAR\"",
    "address": "Ислом Каримов кучаси",
    "lat": 37.23886265,
    "lng": 67.30823355
  },
  {
    "name": "\"GOSHA\" MCHJ",
    "address": "Abdulla Avloniy MFY, Afrosiyob ko'chasi, 19 \"ж\"-uy  ",
    "lat": 37.23886855,
    "lng": 67.28012795
  },
  {
    "name": "XASANOVA FERUZA MURODULLAEVNA",
    "address": "Термез шахар 5 кичик даха А.Навойи",
    "lat": 37.238947,
    "lng": 67.297044
  },
  {
    "name": "JURAYEV RAXMIDIN RAXMANBERDIYEVICH",
    "address": "город Термез ТЕРМИЗ Ш., ПАТТАКЕСАР МФЙ, ПАТТАКЕСАР МФЙ, ГУЛШАН,  uy:12 xonadon:6",
    "lat": 37.2389566,
    "lng": 67.3200594
  },
  {
    "name": "CHORSHANBIYEV AZIMBEK",
    "address": "Термез шахар",
    "lat": 37.2389941,
    "lng": 67.2966135
  },
  {
    "name": "Бунёдбек Елшодбек Х/К",
    "address": "Термез шахар",
    "lat": 37.23911013,
    "lng": 67.27976708
  },
  {
    "name": "SAIDOVA MOXINUR HAMROYEVNA",
    "address": "",
    "lat": 37.239135880954564,
    "lng": 67.2795709501952
  },
  {
    "name": "ЯТТ Курбонова Мавлуда",
    "address": "Термез шахар",
    "lat": 37.23921923248438,
    "lng": 67.267703559133
  },
  {
    "name": "Термиз Эко Траде 4",
    "address": "Термез шахар",
    "lat": 37.23922674549794,
    "lng": 67.26994241703147
  },
  {
    "name": "\"BINAFSHA MOXIDIL\" MCHJ",
    "address": "термез шахар",
    "lat": 37.23923808,
    "lng": 67.31607429
  },
  {
    "name": "\"OMED FARMANI\" MCHJ",
    "address": "Термез шахар",
    "lat": 37.23924449484612,
    "lng": 67.2723889421168
  },
  {
    "name": "Гудалова Мехрангиз",
    "address": "Термез шахар",
    "lat": 37.23926291718253,
    "lng": 67.2679521628124
  },
  {
    "name": "TASHMURATOVA XANIFA ODILJONOVNA",
    "address": "город Термез Термиз шахар Мангузар махалласи Мустақиллик кўчаси 71-уй",
    "lat": 37.23926683610254,
    "lng": 67.32107365260771
  },
  {
    "name": "JURAYEVA SABOXAT BOYMURATOVNA",
    "address": "Сурхондарё Термиз шахар",
    "lat": 37.239270000000005,
    "lng": 67.27965666666667
  },
  {
    "name": "NAZAROV ASQARBEK ABDURAXMONOVICH",
    "address": "Термез шахар",
    "lat": 37.2392979,
    "lng": 67.280649
  },
  {
    "name": "ALLAYEVA BARNO GULMURATOVNA",
    "address": "термез шахар",
    "lat": 37.239329670542304,
    "lng": 67.27944461349672
  },
  {
    "name": "Мусулмонов Гайрат",
    "address": "Термез шахар",
    "lat": 37.2393401,
    "lng": 67.2794617
  },
  {
    "name": "\"BEAUTIFUL PARADISE GARDENS  \" MCHJ",
    "address": "термез шахар",
    "lat": 37.23935640882701,
    "lng": 67.29327796027064
  },
  {
    "name": "ЯТТ Бойгучиев Фахриддин",
    "address": "Термез шахар",
    "lat": 37.23938939,
    "lng": 67.29639028
  },
  {
    "name": "МУРОД ИСКАНДАР Х/К",
    "address": "Термез шахар",
    "lat": 37.2394185,
    "lng": 67.2808855
  },
  {
    "name": "ЯТТ Хакимов Сирожиддин",
    "address": "Термез шахар",
    "lat": 37.2394797,
    "lng": 67.2790181
  },
  {
    "name": "MAXMANOVA GULSORA YULDASHOVNA 2",
    "address": "тинчлик мфй",
    "lat": 37.23948782868149,
    "lng": 67.25180250451498
  },
  {
    "name": "AMIROV SHERZOD SHOMAXAMAT O‘G‘LI",
    "address": "город Термез ТЕРМИЗ Ш., МЕХРИОБОД МФЙ, ТОХАРИСТОН,  uy:57/4",
    "lat": 37.2395517,
    "lng": 67.2762784
  },
  {
    "name": "\"GREY TERMIZ\" MCHJ",
    "address": "Jayxun MFY, Afrosiyob ko'chasi, 23-b-uy",
    "lat": 37.23956876434386,
    "lng": 67.278634859249
  },
  {
    "name": "New Sayrob Invest",
    "address": "Алишер Навоий кучаси",
    "lat": 37.2395827,
    "lng": 67.2678891
  },
  {
    "name": "Асадбек Мирахмад",
    "address": "Термиз шахар Джурабаева",
    "lat": 37.239670000000004,
    "lng": 67.27851000000001
  },
  {
    "name": "\"SENA-K-ALKO\" MCHJ",
    "address": "Abdulla Avloniy MFY, Afrosiyob ko'chasi, 19б-uy",
    "lat": 37.23967771,
    "lng": 67.32097626
  },
  {
    "name": "ЯТТ Рахимова Наргиза",
    "address": "Термез шахар",
    "lat": 37.23970559891313,
    "lng": 67.27906476706266
  },
  {
    "name": "\"LIFEELIXIR\" MCHJ",
    "address": "Дўстлик МФЙ, Нукус кучаси, 8-уй  ",
    "lat": 37.23975345958024,
    "lng": 67.27793471887708
  },
  {
    "name": "TALIYEV BOBUR ALMARDAN UG‘LI",
    "address": "Город Термез",
    "lat": 37.23982231,
    "lng": 67.27760888
  },
  {
    "name": "\"START UP GRAND\" MCHJ",
    "address": "Город Термез",
    "lat": 37.2398773,
    "lng": 67.2971737
  },
  {
    "name": "ANNAYEVA MUNISA ALIBOY QIZI",
    "address": "Termiz shaxar",
    "lat": 37.23989401,
    "lng": 67.30990957
  },
  {
    "name": "ЯТТ Шафиева Гулмира",
    "address": "Термез шахар",
    "lat": 37.23992229,
    "lng": 67.29634858
  },
  {
    "name": "Асил Бургер 5 м",
    "address": "Термез шахар",
    "lat": 37.2399248,
    "lng": 67.2971237
  },
  {
    "name": "ЯТТ Шарипова Дилором",
    "address": "Термез шахар",
    "lat": 37.239954457618296,
    "lng": 67.27789532393217
  },
  {
    "name": "\"PARIZODA SAMIR TERMIZ\" OK",
    "address": "Алпомиш МФЙ, Навбахор кучаси, 29 в-уй",
    "lat": 37.23998156,
    "lng": 67.28934487
  },
  {
    "name": "MALIKOV ELDORBEK ABDUROZZOQ O‘G‘LI",
    "address": "богишамол маххаласи",
    "lat": 37.24003408,
    "lng": 67.30725119
  },
  {
    "name": "АСЛ Бургер",
    "address": "Термез шахар",
    "lat": 37.2400741,
    "lng": 67.2810406
  },
  {
    "name": "\"STAR SERVICES KAMRON \" MCHJ",
    "address": "Город Термез",
    "lat": 37.24007813259959,
    "lng": 67.29336437769234
  },
  {
    "name": "ЯТТ Худойбердиев Бобур",
    "address": "Термез Тумани",
    "lat": 37.24007951214818,
    "lng": 67.26334657486844
  },
  {
    "name": "ЯТТ Мардаева Махфуза",
    "address": "Термез шахар",
    "lat": 37.24012319878108,
    "lng": 67.26965041733506
  },
  {
    "name": "KUVATALIYEV BAXTIYOR DJURAYEVICH",
    "address": "Термезский район ЯНГИАРИҚ ҚФЙ, ИСТИҚЛОЛ МФЙ,  uy:00",
    "lat": 37.24015833333333,
    "lng": 67.37031999999999
  },
  {
    "name": "GAIBOV NURIDDIN NORMUMINOVICH",
    "address": "Термиз Шахар",
    "lat": 37.24015974,
    "lng": 67.32159708
  },
  {
    "name": "Фемле Фуд мчж",
    "address": "Термез шахар",
    "lat": 37.24017268046737,
    "lng": 67.28045071475208
  },
  {
    "name": "\"SANJAR EFE 999\" MCHJ",
    "address": "5-kichik daha",
    "lat": 37.24020172,
    "lng": 67.29622398
  },
  {
    "name": "Элзара Платинум Мчж",
    "address": "Термез шахар",
    "lat": 37.240205,
    "lng": 67.3079899
  },
  {
    "name": "JO‘RAYEVA QURBONOY TURDIQUL QIZI",
    "address": "Моваро кучаси",
    "lat": 37.2402144,
    "lng": 67.3073708
  },
  {
    "name": "BO‘RIYEV AZIZBEK MENGNOR O‘G‘LI",
    "address": "термез шахар",
    "lat": 37.24022835,
    "lng": 67.3100378
  },
  {
    "name": "ЯТТ Абдулазиз хуснора Ф",
    "address": "Термез шахар",
    "lat": 37.24024214,
    "lng": 67.29790635
  },
  {
    "name": "SWEET TERMIZ MCHJ",
    "address": "5-Микрайон",
    "lat": 37.240248333333334,
    "lng": 67.29304666666667
  },
  {
    "name": "ЧП \"RO`ZI PALVON TERMIZ\"",
    "address": "МАХАЛЛЯ ГУЛИСТОН  ",
    "lat": 37.2402524,
    "lng": 67.2959538
  },
  {
    "name": "\"BASARI\" MCHJ",
    "address": "Сурхондарё вилоят термиз шахри",
    "lat": 37.240334999999995,
    "lng": 67.28123000000001
  },
  {
    "name": "\"ANDALUS\" MCHJ",
    "address": "I---AT-TERMIZIY , 21, 18",
    "lat": 37.240363333333335,
    "lng": 67.28131833333333
  },
  {
    "name": "O‘ROLOV ZUXRIDDIN ALISHER O‘G‘LI",
    "address": "Юбилейном",
    "lat": 37.24039844702929,
    "lng": 67.2785912733525
  },
  {
    "name": "\"ARSLON TERMIZ ALKO\" MCHJ",
    "address": "Navroʻz MFY, 1-А.Temur ko‘chasi, 86 в-uy",
    "lat": 37.24041108812942,
    "lng": 67.26324615789213
  },
  {
    "name": "NORMAMATOV BAHODIR SHERMAXAMMADOVICH",
    "address": "Bogishamol Mfy",
    "lat": 37.24041152,
    "lng": 67.30939808
  },
  {
    "name": "ЯТТ музафарова мввжуда",
    "address": "Термез шахар",
    "lat": 37.24043099,
    "lng": 67.29801484
  },
  {
    "name": "Сумая Алишер мчж",
    "address": "Термез шахар",
    "lat": 37.240459634922445,
    "lng": 67.27687382139266
  },
  {
    "name": "ЯТТ Камбаров Темур",
    "address": "Термез шахар",
    "lat": 37.2404919,
    "lng": 67.3019856
  },
  {
    "name": "BOZOROV OTABEK BOZOR O‘G‘LI",
    "address": "Термиз Шахар",
    "lat": 37.2405440825969,
    "lng": 67.27851944044232
  },
  {
    "name": "PARDAYEVA MADINA ISHTUXTAROVNA",
    "address": "кирк йиллик",
    "lat": 37.240635,
    "lng": 67.368255
  },
  {
    "name": "Атлас Барака Сурхон",
    "address": "Термез шахар",
    "lat": 37.24069575313479,
    "lng": 67.29098425246775
  },
  {
    "name": "MORDANAYEVA MUYASSAR NORQOBILOVNA",
    "address": "город Термез ТЕРМИЗ Ш., КАТТАБОҒ МФЙ, АТИРГУЛ,  uy:35",
    "lat": 37.2407542,
    "lng": 67.310604
  },
  {
    "name": "SADAT FARZANA XXX",
    "address": "город Термез Алпомиш МФЙ, 5 мавзеси, 68-уй, 44-хонадон",
    "lat": 37.240856666666666,
    "lng": 67.29494333333334
  },
  {
    "name": "\"YUBILEYNIY-GOLD\" MCHJ",
    "address": "A.Temur ko`chasi 85-uy 9-xonadon",
    "lat": 37.24086702,
    "lng": 67.30180791
  },
  {
    "name": "MIRZAYEVA MAVLUDA NURULLO QIZI",
    "address": "САРЫАССИЙСКИЙ р-н САРИАСИЙСКИЙ РАЙОН САРИОСИЁ ШФЙ АФРОСИЁБ МФЙ БИНОКОР Д.0, 0",
    "lat": 37.24094146988398,
    "lng": 67.31054694818513
  },
  {
    "name": "Софиа Сарвиноз Термез",
    "address": "Фидокорлар 52",
    "lat": 37.24098678705725,
    "lng": 67.32240360012807
  },
  {
    "name": "Гиазова Тамара",
    "address": "Термиз шахар",
    "lat": 37.24111162,
    "lng": 67.31115019
  },
  {
    "name": "Дреам Ворлд Платинюм",
    "address": "Доктор А кучаси",
    "lat": 37.24113275196312,
    "lng": 67.29944419877963
  },
  {
    "name": "Уистим х/к",
    "address": "Термез шахар",
    "lat": 37.2411398,
    "lng": 67.2970626
  },
  {
    "name": "\"MOVARO ALKO\" MCHJ",
    "address": "Do‘stlik MFY, Istiqlol ko'chasi, 96-uy, 24-xonadon  ",
    "lat": 37.24118036,
    "lng": 67.31126822
  },
  {
    "name": "RASHIDOVA SHAXNOZA IBRAGIMOVNA",
    "address": "Ибн Сино",
    "lat": 37.2411885,
    "lng": 67.3109396
  },
  {
    "name": "ЯТТ Каримов Элбек",
    "address": "Термез шахар",
    "lat": 37.24119464,
    "lng": 67.29719831
  },
  {
    "name": "\"NAMUNA ELEGANT AGRO\" MCHJ",
    "address": "тинчлик мфй",
    "lat": 37.241321250993565,
    "lng": 67.24970414620942
  },
  {
    "name": "ЯТТ Хажимурадов Руслан",
    "address": "Термез шахар",
    "lat": 37.24132594,
    "lng": 67.29706537
  },
  {
    "name": "NORMURODOV NURMUXAMMAD NURBOYEVICH",
    "address": "город Термез Жайхун МФЙ, 4 мавзеси, 13-уй, 30-хонадон",
    "lat": 37.241358971223235,
    "lng": 67.27717422880232
  },
  {
    "name": "ЯТТ КОДИРОВ ЗОКИР РАХИМОВИЧ",
    "address": "i.karimov kōchasi",
    "lat": 37.24141722,
    "lng": 67.31153434
  },
  {
    "name": "\"ALWAYS READY\" MCHJ",
    "address": "термез",
    "lat": 37.24144574,
    "lng": 67.31160609
  },
  {
    "name": "TURDIEVA URALTOSH XOLMURODOVNA",
    "address": "Термез шахар",
    "lat": 37.241463493555784,
    "lng": 67.2803667280823
  },
  {
    "name": "ЯТТ Ботиров Шерзод",
    "address": "Термез шахар",
    "lat": 37.2414679561871,
    "lng": 67.27017063705952
  },
  {
    "name": "ALPOMISHEVA SHAXNOZA BOLTAYEVNA",
    "address": "Шашлик сити куча",
    "lat": 37.241536,
    "lng": 67.270247
  },
  {
    "name": "Нур баракали Тикланиш",
    "address": "Термез шахар",
    "lat": 37.24154245108366,
    "lng": 67.28039983659983
  },
  {
    "name": "ООО \"OMAD MUXRIDDIN TERMIZ\"",
    "address": "IBIN SINO KO'CHASI 7-MANZILGOX  ",
    "lat": 37.2415511,
    "lng": 67.3118022
  },
  {
    "name": "NORMO‘MINOVA FERUZA JALILOVNA",
    "address": "Фарход мфй",
    "lat": 37.241574023728774,
    "lng": 67.2742258970281
  },
  {
    "name": "Саидова Гулнора ЯТТ",
    "address": "Термез шахар",
    "lat": 37.24158233,
    "lng": 67.29880271
  },
  {
    "name": "Огабек мгс",
    "address": "Термез шахар",
    "lat": 37.24161294288933,
    "lng": 67.28018643334508
  },
  {
    "name": "IGAMBERDIYEV XIKMATULLO BAXTIYOROVICH",
    "address": "Узунский район -, -",
    "lat": 37.24164424,
    "lng": 67.31427931
  },
  {
    "name": "XURRAMOV JALOLIDDIN KOMILJON O‘G‘LI",
    "address": "город Термез ТЕРМИЗ Ш., БОҒИШАМОЛ МФЙ, ФАРХОД,  uy:12А",
    "lat": 37.24165496,
    "lng": 67.3007649
  },
  {
    "name": "\"IKROMBEK JUMAYEV\" MCHJ",
    "address": "Навруз мфй",
    "lat": 37.2418196,
    "lng": 67.2627779
  },
  {
    "name": "XAITKULOVA XAMIDA SAPAROVNA",
    "address": "Термиз Шахар",
    "lat": 37.24185737011583,
    "lng": 67.27403440078079
  },
  {
    "name": "TUYCHIYEVA MALIKA ERKIN QIZI",
    "address": "Термезский район Янгиобод МФЙ, Фаёз тепа кучаси, 7-Б-уй",
    "lat": 37.24186812756623,
    "lng": 67.31243652141475
  },
  {
    "name": "Абраева марафат",
    "address": "город Термез ТЕРМИЗ Ш., МАНГУЗАР МФЙ, МУСТАКИЛЛИК,  uy:64",
    "lat": 37.24189616,
    "lng": 67.3237494
  },
  {
    "name": "Термез еко траде",
    "address": "Термез шахар",
    "lat": 37.2418986472341,
    "lng": 67.30105019405303
  },
  {
    "name": "HAMROYEVA ZARINA RUSTAM QIZI",
    "address": "вагзал",
    "lat": 37.2419178346172,
    "lng": 67.28174412623048
  },
  {
    "name": "\"O’G’IL BIBI\" MCHJ",
    "address": "Гултепа МФЙ, Оксоколлар кучаси, 57-уй",
    "lat": 37.24192385,
    "lng": 67.31237367
  },
  {
    "name": "Саут Браузрс мчж",
    "address": "Термез шахар",
    "lat": 37.24195902,
    "lng": 67.2987734
  },
  {
    "name": "ESHMO‘MINOV MUSLIMBEK SHAVKATOVICH",
    "address": "Янгихаётский район Янги турмуш МФЙ, 3А-строительная территория, 24-уй, 39-хонадон",
    "lat": 37.24198234290269,
    "lng": 67.31241233956274
  },
  {
    "name": "\"BEKZOD SIFAT XIZMAT\" MCHJ",
    "address": "Термиз шахар А.Навоий кучаси",
    "lat": 37.2420332,
    "lng": 67.2830658
  },
  {
    "name": "ООО \"AGTKSH-MUSHTARIY\"",
    "address": "шахар",
    "lat": 37.2420608,
    "lng": 67.2473298
  },
  {
    "name": "\"MUROD SURXON SOHIL\" MCHJ",
    "address": "фидокор кучаси",
    "lat": 37.24206415,
    "lng": 67.27175553
  },
  {
    "name": "\"ZILOLA KLASS\" MCHJ",
    "address": "Ibn sino кучаси",
    "lat": 37.2420991,
    "lng": 67.271854
  },
  {
    "name": "\"MUUM FAST FOOD\" OK",
    "address": "А.Навоий",
    "lat": 37.24210335,
    "lng": 67.30116273
  },
  {
    "name": "ЯТТ Рахимов Амал",
    "address": "Термез шахар",
    "lat": 37.2421187069267,
    "lng": 67.27799112908542
  },
  {
    "name": "XUSANOV ASLIDDIN DAVLAT O‘G‘LI",
    "address": "Термиз Шахар",
    "lat": 37.24216166666667,
    "lng": 67.29873166666667
  },
  {
    "name": "2 Термиз алко 555",
    "address": "термиз шахар  тараккиет  4/3",
    "lat": 37.24239627365023,
    "lng": 67.28120491839945
  },
  {
    "name": "BABAYEVA GULCHEHRA ERGASHEVNA",
    "address": "город Термез ТЕРМИЗ Ш., ШИФОКОР МФЙ, Б.МАРГИЛОНИЙ,  uy:88/1",
    "lat": 37.24241168198437,
    "lng": 67.27115907587273
  },
  {
    "name": "ЯТТ Абдиева Феруза Хамзаева",
    "address": "термиз шахар",
    "lat": 37.24245598067952,
    "lng": 67.26237980998798
  },
  {
    "name": "MUZRAPOVA SAYYORA BAXTIYOROVNA",
    "address": "Термиз Шахар",
    "lat": 37.2424702020362,
    "lng": 67.28090015240014
  },
  {
    "name": "\"AMIRI KABOB\" MCHJ",
    "address": "Навруз МФЙ, Ибн-Сино кучаси, 13-уй, 63-хонадон",
    "lat": 37.2425078,
    "lng": 67.2711883
  },
  {
    "name": "Ассон Термез мчж",
    "address": "Термез шахар",
    "lat": 37.2425518,
    "lng": 67.2811271
  },
  {
    "name": "Турсункулова Бибихол",
    "address": "Термез Тумани",
    "lat": 37.2426062,
    "lng": 67.2617722
  },
  {
    "name": "\"KEPPO\" MCHJ",
    "address": "Kattabogʻ MFY,  5 mitti tuman dahasi , 18-a-uy, 7-xonadon",
    "lat": 37.24271851591766,
    "lng": 67.30202422477305
  },
  {
    "name": "ЯТТ Жумаева Сайёра",
    "address": "Термез шахар",
    "lat": 37.24273578263819,
    "lng": 67.28011820465326
  },
  {
    "name": "YUSUPOVA OYDIN ERKINOVNA",
    "address": "surxon arena rõparasi",
    "lat": 37.24283014,
    "lng": 67.30238316
  },
  {
    "name": "\"SURKHAN DIYORA\" OK",
    "address": "сохил",
    "lat": 37.24288277,
    "lng": 67.32447306
  },
  {
    "name": "XOLBOYEV BOHODIR SHOPO‘LATOVICH",
    "address": "Термиз Шахар",
    "lat": 37.24289367205276,
    "lng": 67.27322682378532
  },
  {
    "name": "МАНСУР МЧЖ БЕСТ РЕСТАРАН",
    "address": "Термез шахар",
    "lat": 37.2431394,
    "lng": 67.2792647
  },
  {
    "name": "ALIQULOVA NARGIZA TOSHPO‘LATOVNA",
    "address": "город Термез Абдурахмон Жомий МФЙ, Муножат кучаси, 19б/1-уй",
    "lat": 37.24314356222749,
    "lng": 67.27915931493044
  },
  {
    "name": "\"Менгзиё Айришох\" О/К",
    "address": "Ibn-Sino кучаси",
    "lat": 37.2431953,
    "lng": 67.2779435
  },
  {
    "name": "RAXIMOV SOBIR NORKOBILOVICH",
    "address": "Бустон мфй",
    "lat": 37.24320956971496,
    "lng": 67.27964420802891
  },
  {
    "name": "Дода бургер",
    "address": "Термез шахар",
    "lat": 37.2432362,
    "lng": 67.2779439
  },
  {
    "name": "Saidova Ra'no Yuldoshaliyeva",
    "address": "город Термез  Дактор А 5даха",
    "lat": 37.24323933,
    "lng": 67.29825262
  },
  {
    "name": "ABDURAHMONOV XURSHID CHORIYEVICH.",
    "address": "ДЕНАУССКИЙ р-н ПИСТАМАЗАР 16 - БУЮК ИПАК ЙУЛИ БР Д.0, 0",
    "lat": 37.243251666666666,
    "lng": 67.29848999999999
  },
  {
    "name": "SAFAROVA FERUZA OTAJON QIZI",
    "address": "город Термез ТЕРМИЗ Ш., ТИНЧЛИК МФЙ,",
    "lat": 37.24325449671596,
    "lng": 67.28836339898407
  },
  {
    "name": "KUVVATOV BAXROM ABDIRAXMANOVICH",
    "address": "термиз тумани барака кучаси 20уй",
    "lat": 37.24328166666667,
    "lng": 67.34551499999999
  },
  {
    "name": "Термиз Сумайа МЧЖ",
    "address": "Термез шахар",
    "lat": 37.243416,
    "lng": 67.2779055
  },
  {
    "name": "MARAT KANESHKA XXX",
    "address": "город Термез Шифокор МФЙ, Ибн-Сино кучаси, 25-уй, 23-хонадон",
    "lat": 37.24344279617071,
    "lng": 67.28359015658498
  },
  {
    "name": "URAQOVA MAFTUNA SHUXRATOVNA",
    "address": "Термиз мфй",
    "lat": 37.243489999999994,
    "lng": 67.34501
  },
  {
    "name": "ЯТТ Бурхонов Бахриддин",
    "address": "Термез шахар",
    "lat": 37.2435754397884,
    "lng": 67.27876947261393
  },
  {
    "name": "Сохибов Мухриддин",
    "address": "Термез шахар",
    "lat": 37.24357875,
    "lng": 67.3113373
  },
  {
    "name": "\"SUROB\" MCHJ",
    "address": "Город Термез",
    "lat": 37.24361052,
    "lng": 67.3107308
  },
  {
    "name": "CHARIYEVA DILNOZA NURITDINOVNA",
    "address": "Термиз Шахар",
    "lat": 37.2437793,
    "lng": 67.2881753
  },
  {
    "name": "BOBOYOROVA SAYYORA MUXIDDIN QIZI",
    "address": "город Термез Сурхандарьинская область, Термез г., А.Темур, дом 135а",
    "lat": 37.24377941340208,
    "lng": 67.28822534903884
  },
  {
    "name": "BEKKAMOV JAMOL ISHKUVATOVICH",
    "address": "город Термез Богишамол МФЙ, Фаровон 1-мавзе мавзеси, 23-уй, 36-хонадон",
    "lat": 37.24380496,
    "lng": 67.31316503
  },
  {
    "name": "Диор парвоз юксалиш",
    "address": "мангузар янги хайот",
    "lat": 37.24394333333333,
    "lng": 67.34313999999999
  },
  {
    "name": "Курбанов Улугбек",
    "address": "Термез шахар",
    "lat": 37.24401188548654,
    "lng": 67.28789007291198
  },
  {
    "name": "SADIKOV DIYOR ROVSHANOVICH",
    "address": "г.ТЕРМЕЗ Г. ТЕРМЕЗ ДУСТЛИК ТАРАККИЁТ (ГАГАРИН) 24-43 УЙЛАР Д.44 КВ.17, 44, 17",
    "lat": 37.244017627090216,
    "lng": 67.27770069614053
  },
  {
    "name": "Термез Туйхона х/к",
    "address": "Термез шахар",
    "lat": 37.24402596,
    "lng": 67.30904587
  },
  {
    "name": "\"XAYRATON LOGESTIK XIZMATI\" MCHJ",
    "address": "таможни",
    "lat": 37.24423966,
    "lng": 67.30925141
  },
  {
    "name": "АЛИШЕРБЕК - ХОЛТУРА  Х К 2",
    "address": "Город Термез",
    "lat": 37.244272,
    "lng": 67.3089783
  },
  {
    "name": "\"GODZILLA TEMUR\" OK",
    "address": "ёшлик куча ичида",
    "lat": 37.24428091907342,
    "lng": 67.27184469190327
  },
  {
    "name": "QUDRATOV AZIZBEK BAHROM O‘G‘LI",
    "address": "тинчлик мфй",
    "lat": 37.244294155966536,
    "lng": 67.26072230504832
  },
  {
    "name": "BUTABOYEV SHAXZODBEK ODILOVICH",
    "address": "ТЕРМЕЗСКИЙ р-н ПАТТАКЕСАР МАНГУЗАР  МАХ. ЁШЛАР Д.0 КВ., 0\\",
    "lat": 37.24433082,
    "lng": 67.32582144
  },
  {
    "name": "CHORSHANBIYEVA IRODA ISMOILOVNA 2",
    "address": "узбекистон махала",
    "lat": 37.244340791366994,
    "lng": 67.28781069628894
  },
  {
    "name": "ЯТТ Улугбек Ойбек Умирбек мчж",
    "address": "Термез шахар",
    "lat": 37.24441886396944,
    "lng": 67.27015249303972
  },
  {
    "name": "KAMOLIDDINOV JASUR MAMARAJAB O‘G‘LI",
    "address": "бустон мфй",
    "lat": 37.244529761374,
    "lng": 67.27655036374927
  },
  {
    "name": "DAVRANOV SHUXRAT TESHAYEVICH",
    "address": "город Термез Г. ТЕРМЕЗ А.ЖОМИЙ Ч.САФАРОВ Д.4 БУР КВ.7, 4 БУР, 7",
    "lat": 37.24455390125513,
    "lng": 67.2763707395643
  },
  {
    "name": "фаришта термиз",
    "address": "Термез шахар",
    "lat": 37.24469579954593,
    "lng": 67.27433285363625
  },
  {
    "name": "HIDOYATOV BAHODIR NE’MATULLO O‘G‘LI",
    "address": "термез шахар",
    "lat": 37.2447646,
    "lng": 67.3082532
  },
  {
    "name": "ЯТТ Рузикулов Давлатмурод",
    "address": "Термез шахар",
    "lat": 37.2448293387258,
    "lng": 67.27405349127677
  },
  {
    "name": "Сумая Алишер",
    "address": "Термез шахар",
    "lat": 37.2448931,
    "lng": 67.307818
  },
  {
    "name": "Шох Али ойлавий корхона",
    "address": "Термез шахар",
    "lat": 37.24490447,
    "lng": 67.30807603
  },
  {
    "name": "Градусс 776 мчж",
    "address": "Термез шахар",
    "lat": 37.24493973,
    "lng": 67.30758305
  },
  {
    "name": "\"NABIXON TERMIZ\" OK",
    "address": "Shifokor MFY, Ibn-Sino ko'chasi, 21 \"а\"-uy",
    "lat": 37.2450727,
    "lng": 67.2749627
  },
  {
    "name": "САХОБИДДИН САФРАН ТЕРМИЗ МЧЖ",
    "address": "Термез шахар",
    "lat": 37.24510487,
    "lng": 67.30794241
  },
  {
    "name": "BEKMURODOV SHAHZOD SHUXRATOVICH",
    "address": "Термиз шахар Ислом Каримов кучаси",
    "lat": 37.2452716,
    "lng": 67.31962734
  },
  {
    "name": "RAVSHANOVA ZULFIYA TULQINOVNA",
    "address": "Тинчлик",
    "lat": 37.24543987352506,
    "lng": 67.2442234528232
  },
  {
    "name": "MAMARASAYEVA MOXICHEXRA SOBIRJANOVNA",
    "address": "Мангузар Мфй",
    "lat": 37.24546550126213,
    "lng": 67.3257742673302
  },
  {
    "name": "\"TABAKA CITY\" MCHJ",
    "address": "яшил дунё",
    "lat": 37.2455642,
    "lng": 67.3087888
  },
  {
    "name": "ЯТТ Болтаева Санобар",
    "address": "Термез Тумани",
    "lat": 37.2456374,
    "lng": 67.2789787
  },
  {
    "name": "XASANOV TOSHTEMIR NABIYEVICH",
    "address": "партизан",
    "lat": 37.24564566431527,
    "lng": 67.26096648425393
  },
  {
    "name": "Анкология бекат",
    "address": "Термез шахар",
    "lat": 37.24574392195791,
    "lng": 67.27830301970243
  },
  {
    "name": "\"YUKSAK DARAJA\" MCHJ",
    "address": "Город Термез",
    "lat": 37.24586897995323,
    "lng": 67.27992340922356
  },
  {
    "name": "Куватов Ойбек",
    "address": "термез шахар элит хаус дом 1этаж",
    "lat": 37.2458782,
    "lng": 67.3093182
  },
  {
    "name": "TEMIROV SANJAR TOHIR O‘G‘LI 3",
    "address": "ат термизий маххаласи",
    "lat": 37.2459907368496,
    "lng": 67.31130234194684
  },
  {
    "name": "ABDULXAKIMIY CHAMANORO BAXTIYORZODA",
    "address": "город Термез ТЕРМИЗ Ш., БЎСТОН МФЙ, КИРККИЗ,  uy:27 Е",
    "lat": 37.2460382,
    "lng": 67.2811269
  },
  {
    "name": "ЯТТ Сафарова Максуда",
    "address": "Термез шахар",
    "lat": 37.24615559913218,
    "lng": 67.27934874594212
  },
  {
    "name": "UMIROV KAMRONBEK O‘RAL O‘G‘LI",
    "address": "город Термез Мангузар МФЙ, Фидокорлар кучаси, 60А-уй, 21-хонадон",
    "lat": 37.2461796,
    "lng": 67.3259648
  },
  {
    "name": "XAMIDOV BAXROMJON SHUXRAT O‘G‘LI",
    "address": "термез шахар",
    "lat": 37.2463397,
    "lng": 67.3056138
  },
  {
    "name": "XUDOYBERDIYEVA ROBIYA YUSUPOVNA",
    "address": "намуна партизан",
    "lat": 37.246339808281355,
    "lng": 67.26042336197786
  },
  {
    "name": "YaTT ''NOVRUZOV XURSHID TULABOYEVICH'' (Термез)",
    "address": "Термиз шахар",
    "lat": 37.2464297,
    "lng": 67.3105094
  },
  {
    "name": "Асл Бургер яшил дунё",
    "address": "Yakka tol mahallasi",
    "lat": 37.2464701,
    "lng": 67.3098182
  },
  {
    "name": "ООО \"IYMONA IMRONBEK TERMEZ\"",
    "address": "ISLOM KARIMOV KO'CHASI 24 A 2 MANZILGOX",
    "lat": 37.24647309,
    "lng": 67.31071733
  },
  {
    "name": "RAXIMNAZAROVA NILUFAR ASHIRALIYEVNA",
    "address": "тинчлик мфй",
    "lat": 37.24647830367145,
    "lng": 67.26038868076337
  },
  {
    "name": "\"NORSOATOV MUZAFFAR\" ФХ 2",
    "address": "вагзал",
    "lat": 37.246509999999994,
    "lng": 67.28057
  },
  {
    "name": "OLIMJONOVA JASMINA OLIMJONOVNA 2",
    "address": "Ибн Сино",
    "lat": 37.24652635,
    "lng": 67.28062332
  },
  {
    "name": "XOLMATOVA DILOROM XAYITMUROTOVNA",
    "address": "yashil dunyo",
    "lat": 37.2465323,
    "lng": 67.3079121
  },
  {
    "name": "SADIQOV HUMOYUN XUSAN O‘G‘LI",
    "address": "termez shaxar яшил бозор  оптум катори",
    "lat": 37.24670888,
    "lng": 67.30805223
  },
  {
    "name": "ООО \"AGRO MIR SURXON\"",
    "address": "Termiz shahar Yashil dunyo",
    "lat": 37.24671373,
    "lng": 67.31019102
  },
  {
    "name": "BERDIMURODOV SOBIRJON ABDUQODIR O‘G‘LI",
    "address": "шифокор мфй",
    "lat": 37.24672567140896,
    "lng": 67.28094238848787
  },
  {
    "name": "SAMIYEVA SALOMAT MANSUROVNA",
    "address": "термез шахар",
    "lat": 37.24679833333333,
    "lng": 67.30786333333334
  },
  {
    "name": "MUQADDAS-NUR-BARAKA  ХК 2",
    "address": "Термиз Шахар юблейни",
    "lat": 37.2468290431425,
    "lng": 67.28084441274405
  },
  {
    "name": "SAFAROVA RO‘ZIGUL FAXRIDDIN QIZI",
    "address": "бустон мфй",
    "lat": 37.24703284911811,
    "lng": 67.28500326164067
  },
  {
    "name": "QODIROV PANJI MERETOVICH",
    "address": "Термиз Шахар журабаева",
    "lat": 37.24706671200693,
    "lng": 67.28494425304234
  },
  {
    "name": "холмаматова шоира",
    "address": "ат термизий кучаси",
    "lat": 37.24708770867437,
    "lng": 67.28494316339493
  },
  {
    "name": "\"INTERNATIONAL SWEETS STORE\" MCHJ",
    "address": "Tермиз Тумани Айритом мфй Айратом кучаси",
    "lat": 37.24711666666667,
    "lng": 67.41911333333334
  },
  {
    "name": "\"AYRITOM BARAKA MARKET\" MCHJ",
    "address": "кирк йилик жахон бозори",
    "lat": 37.24711666666667,
    "lng": 67.41911333333334
  },
  {
    "name": "ЧП \"MEHR NUR\"",
    "address": "Термиз шахар",
    "lat": 37.2471371,
    "lng": 67.3076053
  },
  {
    "name": "KALANDAROVA NADIRA ABDURAXIMOVNA",
    "address": "Термез шахар",
    "lat": 37.24715001,
    "lng": 67.30883146
  },
  {
    "name": "YAZOVA MUXABBAT DAVRONOVNA",
    "address": "Термезский район Сурхандарьинская область, Термезский район, Жўйжангал МСГ, ул. Тараққиёт, дом 92-б",
    "lat": 37.24722166666666,
    "lng": 67.33708666666666
  },
  {
    "name": "Термез Лаззат Ош мчж",
    "address": "Термез шахар",
    "lat": 37.2472426,
    "lng": 67.2828767
  },
  {
    "name": "ALIKULOVA ORZIXOL KUZIYEVNA",
    "address": "Вагзал томон",
    "lat": 37.24725496955216,
    "lng": 67.28173364885151
  },
  {
    "name": "XUSHSHIYEVA ZULFIYA TASHMURATOVNA",
    "address": "город Термез ТЕРМИЗ Ш., БЎСТОН МФЙ, ИБН СИНО,  uy:34 xonadon:42",
    "lat": 37.247255514375865,
    "lng": 67.28198535740376
  },
  {
    "name": "DIYOROVA MUBORAK NARTURAYEVNA",
    "address": "Термиз шахар Tinchlik mahalla _x000D_Ориентир:22-maktab oldi",
    "lat": 37.24731294140868,
    "lng": 67.25668193177101
  },
  {
    "name": "Термез Алижон Фото мчж",
    "address": "Термез шахар",
    "lat": 37.247319999999995,
    "lng": 67.32383
  },
  {
    "name": "\"SUPER SHIRINLIKLARI\" OK",
    "address": "термез шахар",
    "lat": 37.24732031,
    "lng": 67.30932607
  },
  {
    "name": "AXMEDOVA NIGORA ESHDAVLATOVNA",
    "address": "Термезский район ПАХТААБАД ТИНЧЛИК МФЙ ТИНЧЛИК МАХАЛЛАСИ Д.0, 0",
    "lat": 37.24736609467834,
    "lng": 67.24182783543866
  },
  {
    "name": "Фарход Холтураев",
    "address": "Термез шахар",
    "lat": 37.24737024,
    "lng": 67.30967038
  },
  {
    "name": "\"BAXTI-NUR JANUB 2\" MCHJ",
    "address": "термез шахар",
    "lat": 37.24743702,
    "lng": 67.30933
  },
  {
    "name": "NAZAROVA BASHORATXON SOYIBNAZAROVNA",
    "address": "Алишер Навоий",
    "lat": 37.2475643,
    "lng": 67.308779
  },
  {
    "name": "\"DILSHOD INVEST OMAD\" MCHJ",
    "address": "Термез шахар",
    "lat": 37.2475765,
    "lng": 67.30993758
  },
  {
    "name": "Термиз Шавурма плус 2",
    "address": "farovon massivi",
    "lat": 37.247606,
    "lng": 67.3093974
  },
  {
    "name": "MCHJ BERLIN-PROFIL",
    "address": "термиз шахар яшил бозор",
    "lat": 37.24763417,
    "lng": 67.30992851
  },
  {
    "name": "SIDIQOVA RAXIMA SADIKOVNA",
    "address": "yadhil dunyo",
    "lat": 37.2477,
    "lng": 67.3101327
  },
  {
    "name": "ЯТТ Абдурахматова Нодира",
    "address": "Термез шахар",
    "lat": 37.2477496,
    "lng": 67.3073197
  },
  {
    "name": "TEMIROV SANJAR TOHIR O‘G‘LI",
    "address": "Термиз шахар Алишер Навоий кучаси",
    "lat": 37.2478012,
    "lng": 67.31024299
  },
  {
    "name": "ESHMAMATOV ISLOM FAYZULLA O‘G‘LI 2",
    "address": "Термезский район ЯНГИАРИҚ ҚФЙ, АЙРИТОМ МФЙ, ОРЗУ КЎЧАСИ,  uy:9",
    "lat": 37.247836,
    "lng": 67.285699
  },
  {
    "name": "\"TERMIZ YASHIL DUNYO\" MCHJ",
    "address": "Богишамол МФЙ, Фарход кучаси, 2в-уй",
    "lat": 37.2478976,
    "lng": 67.3100684
  },
  {
    "name": "\"TEAM-BUSINESS-TERMIZ\" MCHJ",
    "address": "ISTOMINA KO'CHASI, 61, 5",
    "lat": 37.24791009910405,
    "lng": 67.2855126298964
  },
  {
    "name": "YODGOROV ABDUKHAKIM XAMROIVICH",
    "address": "термез шахар",
    "lat": 37.24797188,
    "lng": 67.3101715
  },
  {
    "name": "Шарипова Фарангиз",
    "address": "Термез шахар",
    "lat": 37.248037,
    "lng": 67.3087726
  },
  {
    "name": "RO‘ZIBOYEVA RUXSHONA IZZATULLO QIZI",
    "address": "пахтакор кучаси",
    "lat": 37.24823666666667,
    "lng": 67.28340166666666
  },
  {
    "name": "ANNAYEVA XADICHA PANDJIYEVNA",
    "address": "хлоп пункт",
    "lat": 37.248255,
    "lng": 67.34866666666667
  },
  {
    "name": "YaTT \"XAYDAROVA SAODAT NARTAJIYEVNA\"",
    "address": "Термез шахар",
    "lat": 37.24830678,
    "lng": 67.32905715
  },
  {
    "name": "RAHMONOVA INTIZOR MIRZA QIZI (Нон кабоб)",
    "address": "Сариасийский район Сурхандарьинская область, Сариасийский район, Нурбулоқ МСГ, ул. Отамакон, дом 504",
    "lat": 37.24832923617214,
    "lng": 67.28741314262152
  },
  {
    "name": "Ясмин Миллинюм",
    "address": "Термез шахар",
    "lat": 37.24842604715377,
    "lng": 67.28355838917196
  },
  {
    "name": "ешбобоев гайрат",
    "address": "жуйжангал",
    "lat": 37.24845166666667,
    "lng": 67.33918333333332
  },
  {
    "name": "\"TERMIZ AYISHA ONA\" OK",
    "address": "айратом",
    "lat": 37.24848333333333,
    "lng": 67.405225
  },
  {
    "name": "YAKUBOVA KIZLARGUL ATAMUROTOVNA",
    "address": "kinotyatr orqasi",
    "lat": 37.24853742,
    "lng": 67.31251391
  },
  {
    "name": "DAVRONOV SIROJIDDIN RAVSHANOVICH",
    "address": "Ибн Сино кучаси",
    "lat": 37.24856103770435,
    "lng": 67.28337775915861
  },
  {
    "name": "Термез голд сентир 1",
    "address": "Термез шахар",
    "lat": 37.24860508,
    "lng": 67.31142315
  },
  {
    "name": "ятт  исломбек чарос савдо маркази",
    "address": "термиз туман аеротом 20 уй",
    "lat": 37.248646666666666,
    "lng": 67.40494166666667
  },
  {
    "name": "Ятт Хожиев Исмоил",
    "address": "Термез шахар",
    "lat": 37.248651310801506,
    "lng": 67.28549896739423
  },
  {
    "name": "ЧП \"UMIDAXON-MANGUZAR\" 2",
    "address": "мангузар",
    "lat": 37.24872833333333,
    "lng": 67.33501833333334
  },
  {
    "name": "SHAVANOV MUXRIDDIN KULSOAT O‘G‘LI",
    "address": "Термезский район ЯНГИАРИҚ ҚФЙ, АЙРИТОМ МФЙ,  uy:00",
    "lat": 37.248731666666664,
    "lng": 67.34751833333333
  },
  {
    "name": "Ятт Сапарова Рано",
    "address": "Термез шахар",
    "lat": 37.24875108,
    "lng": 67.31237013
  },
  {
    "name": "ALIKULOVA NARGISA MILIMUROTOVNA",
    "address": "намуна партизан",
    "lat": 37.24876241431679,
    "lng": 67.26001314463758
  },
  {
    "name": "Туйчиев Фозил (Термез)",
    "address": "Термиз ш яшил дунё",
    "lat": 37.2487932,
    "lng": 67.3068241
  },
  {
    "name": "ЧП \"ДОГА ТЕРМИЗ СЕРВИС\"",
    "address": "Город Термез",
    "lat": 37.248796108178794,
    "lng": 67.28745211847126
  },
  {
    "name": "SARFARAZOV BEKZOD MUXIDDINOVICH",
    "address": "I-GULIRA`NO X.OLIMJON KO`CHASI 6-UY",
    "lat": 37.2488348,
    "lng": 67.3086222
  },
  {
    "name": "Термез Умар мчж",
    "address": "Термез шахар",
    "lat": 37.2488418872226,
    "lng": 67.23768890614912
  },
  {
    "name": "ЯТТ Бердиева Гулшан",
    "address": "Термез шахар",
    "lat": 37.24885266878369,
    "lng": 67.2384609946598
  },
  {
    "name": "термез шарбати 3",
    "address": "Термез шахар",
    "lat": 37.24887179676443,
    "lng": 67.28530375286937
  },
  {
    "name": "Махмудов Мустаким",
    "address": "Термиз шахар Sharof Rashidov mahalla",
    "lat": 37.24887470279542,
    "lng": 67.31104736574498
  },
  {
    "name": "JUMAYEVA SHAHLO SOATMO‘MIN QIZI",
    "address": "Ибин Сино 29",
    "lat": 37.24889085,
    "lng": 67.28543409
  },
  {
    "name": "мадатова сабохат махамадиновна",
    "address": "мархамат кучаси",
    "lat": 37.2488933801651,
    "lng": 67.28864620439708
  },
  {
    "name": "ЯТТ Бобониёзова Рано",
    "address": "Термез шахар",
    "lat": 37.2489421,
    "lng": 67.2894423
  },
  {
    "name": "\"ABDURAYIM AKA AGRO KOMPLEKS\" MCHJ",
    "address": "termiz shaxar",
    "lat": 37.24896483588964,
    "lng": 67.28945111855865
  },
  {
    "name": "ЧП \"UMIDAXON-MANGUZAR\"",
    "address": "Кирк йилик",
    "lat": 37.24905833333333,
    "lng": 67.41516833333334
  },
  {
    "name": "ODINAYEVA OYBIBI PARDAYEVNA",
    "address": "Термиз Шахар",
    "lat": 37.24906005786012,
    "lng": 67.26588990677817
  },
  {
    "name": "ЧП \"TERMIZ-UMAR\"",
    "address": "II----A.TEMUR, 87 \"A\", 15",
    "lat": 37.24918287,
    "lng": 67.2378001
  },
  {
    "name": "\"RUSTAM DURDONA\" MCHJ",
    "address": "Bogʻishamol MFY, Farovon 3 dahasi, 2-uy, 10-дукон-xonadon",
    "lat": 37.24921903268018,
    "lng": 67.3110157226666
  },
  {
    "name": "Ятт Хушбоков Ойбек",
    "address": "и каримов",
    "lat": 37.24940494,
    "lng": 67.32376142
  },
  {
    "name": "SAMIYEVA DILFUZA ALIJONOVNA",
    "address": "город Термез Г. ТЕРМЕЗ ТЕМИР ЙУЛЧИ УВАЙСИЙ ЛОКОМОТИВНАЯ 1-70 УЙЛАР Д.48 А, 48 А",
    "lat": 37.249514999999995,
    "lng": 67.286405
  },
  {
    "name": "AZIMOVA BEKNOZA BAXROMOVNA",
    "address": "16 гародок",
    "lat": 37.249644859693944,
    "lng": 67.29348977096379
  },
  {
    "name": "Боходиров зиёдулла",
    "address": "термез шахар",
    "lat": 37.24966648500413,
    "lng": 67.27692754939198
  },
  {
    "name": "\"INTEGRAL FAROVON\" MCHJ",
    "address": "Shifokor MFY, Burhoniddin Marg'iloniy ko'chasi, 15/5-uy",
    "lat": 37.24970166666667,
    "lng": 67.27773499999999
  },
  {
    "name": "\"HODIJA SUMAYA BAROKA MOBILE\" XK",
    "address": "Термиз шахар А.Навоий кучаси",
    "lat": 37.24971593823284,
    "lng": 67.29200449772179
  },
  {
    "name": "UZOQOV UMRZOQ ESHMO‘MIN O‘G‘LI",
    "address": "яшил дунё",
    "lat": 37.24972998156816,
    "lng": 67.3091604244706
  },
  {
    "name": "\"ZOOAGRO\" MCHJ",
    "address": "куёшли юртим маххаласи",
    "lat": 37.2497503,
    "lng": 67.3107606
  },
  {
    "name": "ятт буриева ситора",
    "address": "город Термез TERMIZ SHAHAR TERMIZIY KO`CHASI 7A-UY, 7 А",
    "lat": 37.24975076504052,
    "lng": 67.29430465959013
  },
  {
    "name": "Аликулов жахонгир",
    "address": "Термез шахар",
    "lat": 37.249752818606794,
    "lng": 67.27818148210645
  },
  {
    "name": "ООО \"NODIR\" 2",
    "address": "ат термизий маххаласи",
    "lat": 37.2497771,
    "lng": 67.3107264
  },
  {
    "name": "ALMARDONOVA MANZURA AZIMQULOVNA",
    "address": "Город Термез",
    "lat": 37.24978335,
    "lng": 67.2773432
  },
  {
    "name": "DIYOROVA MUBORAK NARTURAYEVNA 2",
    "address": "Термез шахар",
    "lat": 37.24983973894268,
    "lng": 67.29433315806091
  },
  {
    "name": "Термез Оташ мчж",
    "address": "Термез Тумани",
    "lat": 37.24989071,
    "lng": 67.33240703
  },
  {
    "name": "ЧП \"LIMONZOR SO`NGKELDI\"",
    "address": "Алишер Н.",
    "lat": 37.249891,
    "lng": 67.3093452
  },
  {
    "name": "Шамсиддин Фермер Хужалиги х/к",
    "address": "Термез шахар",
    "lat": 37.24994166666667,
    "lng": 67.30948666666667
  },
  {
    "name": "CHORIYEV ISLOM RAVSHAN O‘G‘LI",
    "address": "Город Термез",
    "lat": 37.2499818,
    "lng": 67.295831
  },
  {
    "name": "Сафранбай Инденим",
    "address": "Farovon massiv",
    "lat": 37.24998666666667,
    "lng": 67.30924666666667
  },
  {
    "name": "ЯТТ Абраева Севара",
    "address": "Термез шахар",
    "lat": 37.2500145,
    "lng": 67.2958289
  },
  {
    "name": "Фудис Инденим",
    "address": "Термез шахар",
    "lat": 37.2501048,
    "lng": 67.3090417
  },
  {
    "name": "ZULFAKOVA LAYLO FIRDASOVNA",
    "address": "Термиз Шахар",
    "lat": 37.25011933,
    "lng": 67.2865744
  },
  {
    "name": "KUVATOV DJAMSHID XUDAYBERDIYEVICH",
    "address": "город Термез Сурхандарьинская область, Термез г., Тинчлик, дом 34",
    "lat": 37.250145385174946,
    "lng": 67.25994148294525
  },
  {
    "name": "\"ANDALUS\" MCHJ 2",
    "address": "I---AT-TERMIZIY , 21, 18",
    "lat": 37.25016851,
    "lng": 67.28277177
  },
  {
    "name": "FAYZULLAYEV SHAHZOD G‘AYRAT O‘G‘LI",
    "address": "тинчлик мфй",
    "lat": 37.250201232824296,
    "lng": 67.23714978588171
  },
  {
    "name": "CHORIYEV SOATMUROD JO‘RABOY O‘G‘LI",
    "address": "эркин вахидов маххаласи",
    "lat": 37.25026722061868,
    "lng": 67.26031163109333
  },
  {
    "name": "\"RAMAZON SHASHLIK\" MCHJ",
    "address": "namuna ramazon shashlk",
    "lat": 37.2503043,
    "lng": 67.2603539
  },
  {
    "name": "ЧП \"MEXRSHOD IMKON\"",
    "address": "termiz tumani Namuna ipak somsaxona",
    "lat": 37.2503043,
    "lng": 67.2603539
  },
  {
    "name": "Термез регион",
    "address": "Термез Тумани",
    "lat": 37.25034333333333,
    "lng": 67.331175
  },
  {
    "name": "Термез Шовурма Плюс ОК",
    "address": "Термез шахар",
    "lat": 37.250393333333335,
    "lng": 67.30947166666667
  },
  {
    "name": "HAMROYEVA ZARINA UMEDILLOYEVNA",
    "address": "БАЙСУНСКИЙ р-н ",
    "lat": 37.25041335448623,
    "lng": 67.29372496716678
  },
  {
    "name": "Термиз Асадбек Гкзари Х/К",
    "address": "Термез Тумани",
    "lat": 37.250585,
    "lng": 67.34320333333334
  },
  {
    "name": "ТЕРМИЗ ФООД ХОУСЕ МЧЖ",
    "address": "Термез шахар",
    "lat": 37.250755000000005,
    "lng": 67.29686166666667
  },
  {
    "name": "ЯТТ Шерхонова Зилола",
    "address": "Термез шахар",
    "lat": 37.2508233,
    "lng": 67.287352
  },
  {
    "name": "MAMATALIYEV ILXOM BOTIROVICH",
    "address": "Термезский район -, -",
    "lat": 37.25088227964903,
    "lng": 67.25987765501547
  },
  {
    "name": "Саламова Инобат",
    "address": "термез шахар Мангузар махалласи",
    "lat": 37.25107695,
    "lng": 67.32844074
  },
  {
    "name": "Саидамин Термез",
    "address": "намуна",
    "lat": 37.25110422467147,
    "lng": 67.25990153343338
  },
  {
    "name": "Саидмуродов бахром",
    "address": "намуна",
    "lat": 37.25111015167529,
    "lng": 67.26026346382709
  },
  {
    "name": "\"SURXON MANGUZAR\" OK",
    "address": "мангузар",
    "lat": 37.251155000000004,
    "lng": 67.32935666666667
  },
  {
    "name": "Баратова Ширина",
    "address": "Термез шахар",
    "lat": 37.2512473,
    "lng": 67.3100748
  },
  {
    "name": "ЯТТ Курбонова Дилноза",
    "address": "Термез шахар",
    "lat": 37.25145,
    "lng": 67.27617666666667
  },
  {
    "name": "ЯТТ Донёров Хусниддин",
    "address": "Термез шахар",
    "lat": 37.25148900412023,
    "lng": 67.29960856027901
  },
  {
    "name": "ALIJONOV JALOLIDDIN ISHOQ O‘G‘LI",
    "address": "Сариасийский район М.Улугбек МФЙ, Фаровонлик кучаси, 1-уй, 1-Корпус, 10-хонадон",
    "lat": 37.25183973,
    "lng": 67.30832717
  },
  {
    "name": "HAMIDOV SHOHRUX TURSUNPULAT O‘G‘LI",
    "address": "термиз мфй",
    "lat": 37.252269999999996,
    "lng": 67.34254166666666
  },
  {
    "name": "NORMURODOV NURMUXAMMAD NURBOYEVICH 2",
    "address": "город Термез",
    "lat": 37.25286957,
    "lng": 67.3232231
  },
  {
    "name": "XODJIMATOVA BARFINA TULQINOVNA",
    "address": "термез шахар",
    "lat": 37.25290127,
    "lng": 67.30846378
  },
  {
    "name": "\"MUXAYYO SIFAT\" O/K",
    "address": "Термиз шахар Ibn Sino кучаси",
    "lat": 37.25290333333333,
    "lng": 67.30170166666667
  },
  {
    "name": "BEGANCHIYEVA GULBAXOR XALLIYEVA",
    "address": "Намуна",
    "lat": 37.25327,
    "lng": 67.28141333333333
  },
  {
    "name": "ZAFAR SAYED RAMIN XXX",
    "address": "город Термез Жайхун МФЙ, Ал хаким ат-Термизий кучаси, 19-уй, 1-Корпус, 23-хонадон",
    "lat": 37.2535512,
    "lng": 67.3221738
  },
  {
    "name": "\"UMID ORZU TRANS\" MChJ",
    "address": "Термиз шахар А.Навоий кучаси",
    "lat": 37.25358674302697,
    "lng": 67.30435682460666
  },
  {
    "name": "ABDUVALIYEV ISLOM ILHOM O‘G‘LI",
    "address": "город Термез ТЕРМИЗ Ш., ТЕМИР ЙЎЛЧИ МФЙ, ШЕРОБОД,  uy:98/7",
    "lat": 37.253973333333334,
    "lng": 67.28207666666667
  },
  {
    "name": "Шодиев Акбар",
    "address": "40 йиллик",
    "lat": 37.25426065,
    "lng": 67.33161442
  },
  {
    "name": "NURALIYEV ABDUSALOM KAXAROVICH",
    "address": "Термезский район ГУЛБАХОР МФЙ,  uy:00",
    "lat": 37.25447,
    "lng": 67.72839333333333
  },
  {
    "name": "\"CRISTAL GARDEN GOLD\" OK",
    "address": "Сурхандарьинская область, Термезский район, Нурли диёр МСГ, ул. Қахрамон, дом 1а",
    "lat": 37.2544764,
    "lng": 67.2698573
  },
  {
    "name": "XO‘SHBOQOV TO‘YCHIBOY SHAVKAT O‘G‘LI",
    "address": "Термезский район ПАХТАОБОД ҚФЙ, АМУ СОХИЛИ МФЙ,  uy:00",
    "lat": 37.2544805,
    "lng": 67.2698276
  },
  {
    "name": "SPORT GOLDEN START OK",
    "address": "термез шахар",
    "lat": 37.254581,
    "lng": 67.3178866
  },
  {
    "name": "\"OSIYOBONU-MARYAM\" OK",
    "address": "намуна",
    "lat": 37.25459333333333,
    "lng": 67.27379166666667
  },
  {
    "name": "ЯТТ Очилназаров Жамшид",
    "address": "Термез шахар",
    "lat": 37.2547696,
    "lng": 67.3165798
  },
  {
    "name": "BAZAROVA SHOIRA XASANOVNA",
    "address": "салавот",
    "lat": 37.25485195,
    "lng": 67.33031565
  },
  {
    "name": "PANJIYEVA MARIYA XXX",
    "address": "саловат",
    "lat": 37.25495357,
    "lng": 67.32920398
  },
  {
    "name": "Дадабоева лобар хамиджоновна",
    "address": "лимонария",
    "lat": 37.25496166666667,
    "lng": 67.28985166666666
  },
  {
    "name": "Термез Карго Сентир мчж",
    "address": "Термез Тумани",
    "lat": 37.25507833333334,
    "lng": 67.41822166666667
  },
  {
    "name": "TURAYEV MANSURJON NARTAJIYEVICH",
    "address": "остона куча",
    "lat": 37.25537333333333,
    "lng": 67.71975666666667
  },
  {
    "name": "XAMIDOVA XOLISXON XXX",
    "address": "город Термез Сурхандарьинская область, Термез г., Фаровон массиви, дом 2-мавзе 1 \"б\", кв. 17",
    "lat": 37.2555119,
    "lng": 67.3140982
  },
  {
    "name": "Нурли барака бекзод о/к",
    "address": "Термез тумани",
    "lat": 37.25571333333333,
    "lng": 67.71712166666666
  },
  {
    "name": "BERDIYEV FARHOD ABRAYEVICH",
    "address": "Термиз Шахар",
    "lat": 37.2557231,
    "lng": 67.2823995
  },
  {
    "name": "BEGIMKULOV SALIM ALIMARDONOVICH",
    "address": "Термезский район Surxondaryo viloyati, Termiz tumani, термиз тумани,5723 - MUSTAQILLIK mahallasi, мустакиллик махалласи, -",
    "lat": 37.25593833333333,
    "lng": 67.71764166666667
  },
  {
    "name": "\"XOLBI MOMO\" MCHJ",
    "address": "ПАХТААБАДQAXRAMON MAHALLASI MUSTAQILLIK 2 BE",
    "lat": 37.2561752,
    "lng": 67.2626176
  },
  {
    "name": "\"SOBIR AVTO TRANS\" MChJ",
    "address": "GULBAXOR MFY",
    "lat": 37.256285000000005,
    "lng": 67.71467166666666
  },
  {
    "name": "\"RMX YAXYO\" OK",
    "address": "Алишер Навоий МФЙ, Алишер Навоий кучаси, 8Б-уй",
    "lat": 37.25645,
    "lng": 67.28264166666666
  },
  {
    "name": "XURRAMOV BOBIR XOLBAYEVICH",
    "address": "город Термез ТЕРМИЗ Ш., САНОАТ МФЙ, ИСТИКЛОЛ,  uy:15/4",
    "lat": 37.2566505,
    "lng": 67.2575826
  },
  {
    "name": "RAXMATULLAYEVA LOLAXON XUSINOVNA",
    "address": "кахрамон махалла",
    "lat": 37.25699418493525,
    "lng": 67.23256564335384
  },
  {
    "name": "ESANOVA ADALAT MAMADULLAYEVNA",
    "address": "Термезский район ПАТТАКЕСАР САЛИОБОД  МАХ. СОЛИОБОД Д.0 0 КВ.0, 0 0, 0",
    "lat": 37.257075,
    "lng": 67.3240174
  },
  {
    "name": "нормуродов мухриддин",
    "address": "гулбахор",
    "lat": 37.257661666666664,
    "lng": 67.71912833333334
  },
  {
    "name": "ALIJONOVA DILBARXON QODIR QIZI",
    "address": "пахта сех йонидан кирилади",
    "lat": 37.2577551,
    "lng": 67.273635
  },
  {
    "name": "YO‘LDOSHEV ILHOM MUHIDDIN O‘G‘LI",
    "address": ": ISTIQLOL Mfy",
    "lat": 37.25783166666667,
    "lng": 67.35519
  },
  {
    "name": "ADINAYEVA SHOXIDA NARMURATOVNA",
    "address": "намуна",
    "lat": 37.2579378,
    "lng": 67.2827999
  },
  {
    "name": "JALILOV O‘RAL FAXRIDDIN O‘G‘LI",
    "address": "Термезский район ЯНГИАРИҚ ҚФЙ, ИСТИҚЛОЛ МФЙ,  uy:00",
    "lat": 37.258008333333336,
    "lng": 67.37451833333333
  },